[11:22:00.914]$GNRMC,092200.467,V,,,,,,,290721,,,N*50
[11:22:01.789]$GPGGA,092201.464,4104.2709,N,00103.3348,E,1,03,3.6,-51.7,M,51.7,M,,0000*4A
[11:22:01.945]$GNGNS,092201.464,4104.2709,N,00103.3348,E,AA,03,3.6,-51.7,51.7,,0000*7E
[11:22:02.039]$GNGSA,A,2,10,27,16,,,,,,,,,,4.8,3.6,3.2*26
[11:22:02.180]$GNRMC,092201.464,A,4104.2709,N,00103.3348,E,12.80,0.00,290721,,,A*49
[11:22:02.774]$GPGGA,092202.464,4104.3007,N,00103.4270,E,1,03,3.3,376.2,M,51.7,M,,0000*57
[11:22:02.930]$GNGNS,092202.464,4104.3007,N,00103.4270,E,AA,04,3.3,376.2,51.7,,0000*64
[11:22:03.023]$GNGSA,A,3,10,27,16,,,,,,,,,,6.2,3.3,5.2*2C
[11:22:03.117]$GNGSA,A,3,74,,,,,,,,,,,,6.2,3.3,5.2*2C
[11:22:03.258]$GPGSV,2,1,07,10,60,160,43,27,55,310,35,16,57,234,25,08,00,000,23*75
[11:22:03.383]$GPGSV,2,2,07,18,37,060,24,23,00,000,41,26,00,000,37*47
[11:22:03.524]$GLGSV,3,1,11,74,43,301,25,86,41,125,31,77,21,294,33,87,06,170,28*60
[11:22:03.648]$GLGSV,3,2,11,67,27,310,23,76,58,352,,85,36,054,,66,32,252,*66
[11:22:03.758]$GLGSV,3,3,11,75,30,070,,65,06,203,,84,02,017,*5F
[11:22:03.914]$GNRMC,092202.464,A,4104.3007,N,00103.4270,E,11.21,71.66,290721,,,A*71
[11:22:04.070]$GPGGA,092203.466,4104.2955,N,00103.4271,E,1,03,3.3,352.6,M,51.7,M,,0000*58
[11:22:04.226]$GNGNS,092203.466,4104.2955,N,00103.4271,E,AA,04,3.3,352.6,51.7,,0000*6B
[11:22:04.320]$GNGSA,A,3,10,27,16,,,,,,,,,,6.2,3.3,5.2*2C
[11:22:04.398]$GNGSA,A,3,74,,,,,,,,,,,,6.2,3.3,5.2*2C
[11:22:04.555]$GNRMC,092203.466,A,4104.2955,N,00103.4271,E,10.60,87.74,290721,,,A*72
[11:22:04.773]$GPGGA,092204.466,4104.2976,N,00103.4301,E,1,03,3.3,334.1,M,51.7,M,,0000*5F
[11:22:04.930]$GNGNS,092204.466,4104.2976,N,00103.4301,E,AA,04,3.3,334.1,51.7,,0000*6C
[11:22:05.023]$GNGSA,A,3,10,27,16,,,,,,,,,,6.2,3.3,5.2*2C
[11:22:05.102]$GNGSA,A,3,74,,,,,,,,,,,,6.2,3.3,5.2*2C
[11:22:05.258]$GNRMC,092204.466,A,4104.2976,N,00103.4301,E,9.82,90.68,290721,,,A*4D
[11:22:05.742]$GPGGA,092205.466,4104.2953,N,00103.4323,E,1,03,3.3,330.4,M,51.7,M,,0000*58
[11:22:05.899]$GNGNS,092205.466,4104.2953,N,00103.4323,E,AA,04,3.3,330.4,51.7,,0000*6B
[11:22:05.992]$GNGSA,A,3,10,27,16,,,,,,,,,,6.2,3.3,5.2*2C
[11:22:06.070]$GNGSA,A,3,74,,,,,,,,,,,,6.2,3.3,5.2*2C
[11:22:06.226]$GNRMC,092205.466,A,4104.2953,N,00103.4323,E,9.83,97.65,290721,,,A*40
[11:22:06.742]$GPGGA,092206.466,4104.2956,N,00103.4393,E,1,03,3.3,341.6,M,51.7,M,,0000*51
[11:22:06.898]$GNGNS,092206.466,4104.2956,N,00103.4393,E,AA,04,3.3,341.6,51.7,,0000*62
[11:22:06.992]$GNGSA,A,3,10,16,27,,,,,,,,,,6.2,3.3,5.2*2C
[11:22:07.070]$GNGSA,A,3,74,,,,,,,,,,,,6.2,3.3,5.2*2C
[11:22:07.226]$GNRMC,092206.466,A,4104.2956,N,00103.4393,E,12.31,106.37,290721,,,A*40
[11:22:07.742]$GPGGA,092207.466,4104.2937,N,00103.4424,E,1,03,3.3,337.6,M,51.7,M,,0000*5D
[11:22:07.899]$GNGNS,092207.466,4104.2937,N,00103.4424,E,AA,04,3.3,337.6,51.7,,0000*6E
[11:22:07.992]$GNGSA,A,3,10,16,27,,,,,,,,,,6.2,3.3,5.2*2C
[11:22:08.086]$GNGSA,A,3,74,,,,,,,,,,,,6.2,3.3,5.2*2C
[11:22:08.227]$GPGSV,2,1,07,10,51,121,43,16,70,190,31,27,65,328,26,08,00,000,22*74
[11:22:08.336]$GPGSV,2,2,07,18,22,052,26,23,00,000,34,26,00,000,38*4D
[11:22:08.492]$GLGSV,3,1,11,74,43,301,27,86,41,125,22,77,22,294,33,87,06,170,24*6F
[11:22:08.617]$GLGSV,3,2,11,67,27,310,29,76,58,352,,85,36,054,,66,32,252,*6C
[11:22:08.726]$GLGSV,3,3,11,75,30,070,,65,06,203,,84,02,016,*5E
[11:22:08.883]$GNRMC,092207.466,A,4104.2937,N,00103.4424,E,11.60,118.77,290721,,,A*41
[11:22:09.039]$GPGGA,092208.466,4104.2922,N,00103.4463,E,1,03,3.3,346.2,M,51.7,M,,0000*57
[11:22:09.195]$GNGNS,092208.466,4104.2922,N,00103.4463,E,AA,04,3.3,346.2,51.7,,0000*64
[11:22:09.289]$GNGSA,A,3,27,16,10,,,,,,,,,,6.2,3.3,5.2*2C
[11:22:09.367]$GNGSA,A,3,74,,,,,,,,,,,,6.2,3.3,5.2*2C
[11:22:09.524]$GNRMC,092208.466,A,4104.2922,N,00103.4463,E,11.38,117.15,290721,,,A*4F
[11:22:09.742]$GPGGA,092209.466,4104.2917,N,00103.4496,E,1,03,3.3,339.8,M,51.7,M,,0000*58
[11:22:09.898]$GNGNS,092209.466,4104.2917,N,00103.4496,E,AA,04,3.3,339.8,51.7,,0000*6B
[11:22:09.992]$GNGSA,A,3,10,27,16,,,,,,,,,,6.2,3.3,5.2*2C
[11:22:10.070]$GNGSA,A,3,74,,,,,,,,,,,,6.2,3.3,5.2*2C
[11:22:10.226]$GNRMC,092209.466,A,4104.2917,N,00103.4496,E,10.13,111.60,290721,,,A*4E
[11:22:10.742]$GPGGA,092210.466,4104.2923,N,00103.4537,E,1,03,3.3,345.7,M,51.7,M,,0000*59
[11:22:10.898]$GNGNS,092210.466,4104.2923,N,00103.4537,E,AA,04,3.3,345.7,51.7,,0000*6A
[11:22:10.992]$GNGSA,A,3,10,16,27,,,,,,,,,,6.2,3.3,5.2*2C
[11:22:11.070]$GNGSA,A,3,74,,,,,,,,,,,,6.2,3.3,5.2*2C
[11:22:11.226]$GNRMC,092210.466,A,4104.2923,N,00103.4537,E,9.71,109.60,290721,,,A*7E
[11:22:11.742]$GPGGA,092211.466,4104.2927,N,00103.4574,E,1,03,3.3,348.4,M,51.7,M,,0000*55
[11:22:11.898]$GNGNS,092211.466,4104.2927,N,00103.4574,E,AA,04,3.3,348.4,51.7,,0000*66
[11:22:11.992]$GNGSA,A,3,10,16,27,,,,,,,,,,6.2,3.3,5.2*2C
[11:22:12.070]$GNGSA,A,3,74,,,,,,,,,,,,6.2,3.3,5.2*2C
[11:22:12.227]$GNRMC,092211.466,A,4104.2927,N,00103.4574,E,9.28,106.62,290721,,,A*7D
[11:22:12.742]$GPGGA,092212.466,4104.2947,N,00103.4627,E,1,03,3.3,353.1,M,51.7,M,,0000*5A
[11:22:12.898]$GNGNS,092212.466,4104.2947,N,00103.4627,E,AA,04,3.3,353.1,51.7,,0000*69
[11:22:12.992]$GNGSA,A,3,10,16,27,,,,,,,,,,6.2,3.3,5.2*2C
[11:22:13.086]$GNGSA,A,3,74,,,,,,,,,,,,6.2,3.3,5.2*2C
[11:22:13.227]$GPGSV,2,1,07,10,51,121,42,16,70,190,34,27,65,328,30,08,00,000,28*7D
[11:22:13.352]$GPGSV,2,2,07,18,22,052,29,23,00,000,29,26,00,000,29*4E
[11:22:13.492]$GLGSV,3,1,11,74,43,301,27,86,41,125,19,77,22,294,29,87,06,170,30*69
[11:22:13.617]$GLGSV,3,2,11,67,27,310,28,76,58,352,,85,36,054,,66,32,252,*6D
[11:22:13.727]$GLGSV,3,3,11,75,30,070,,65,06,203,,84,02,016,*5E
[11:22:13.883]$GNRMC,092212.466,A,4104.2947,N,00103.4627,E,11.61,95.00,290721,,,A*76
[11:22:14.039]$GPGGA,092213.466,4104.2948,N,00103.4667,E,1,03,3.3,356.5,M,51.7,M,,0000*51
[11:22:14.195]$GNGNS,092213.466,4104.2948,N,00103.4667,E,AA,04,3.3,356.5,51.7,,0000*62
[11:22:14.289]$GNGSA,A,3,27,16,10,,,,,,,,,,6.2,3.3,5.2*2C
[11:22:14.367]$GNGSA,A,3,74,,,,,,,,,,,,6.2,3.3,5.2*2C
[11:22:14.523]$GNRMC,092213.466,A,4104.2948,N,00103.4667,E,10.35,97.79,290721,,,A*70
[11:22:14.742]$GPGGA,092214.466,4104.2949,N,00103.4693,E,1,03,3.3,347.9,M,51.7,M,,0000*50
[11:22:14.898]$GNGNS,092214.466,4104.2949,N,00103.4693,E,AA,04,3.3,347.9,51.7,,0000*63
[11:22:14.992]$GNGSA,A,3,10,27,16,,,,,,,,,,6.2,3.3,5.2*2C
[11:22:15.070]$GNGSA,A,3,74,,,,,,,,,,,,6.2,3.3,5.2*2C
[11:22:15.226]$GNRMC,092214.466,A,4104.2949,N,00103.4693,E,8.62,98.24,290721,,,A*41
[11:22:15.758]$GPGGA,092215.466,4104.2947,N,00103.4720,E,1,03,3.3,342.3,M,51.7,M,,0000*59
[11:22:15.898]$GNGNS,092215.466,4104.2947,N,00103.4720,E,AA,04,3.3,342.3,51.7,,0000*6A
[11:22:15.992]$GNGSA,A,3,10,27,16,,,,,,,,,,6.2,3.3,5.2*2C
[11:22:16.086]$GNGSA,A,3,74,,,,,,,,,,,,6.2,3.3,5.2*2C
[11:22:16.227]$GNRMC,092215.466,A,4104.2947,N,00103.4720,E,8.57,98.56,290721,,,A*44
[11:22:16.742]$GPGGA,092216.468,4104.2949,N,00103.4769,E,1,03,3.3,344.5,M,51.7,M,,0000*57
[11:22:16.898]$GNGNS,092216.468,4104.2949,N,00103.4769,E,AA,04,3.3,344.5,51.7,,0000*64
[11:22:16.992]$GNGSA,A,3,10,27,16,,,,,,,,,,6.2,3.3,5.2*2C
[11:22:17.086]$GNGSA,A,3,74,,,,,,,,,,,,6.2,3.3,5.2*2C
[11:22:17.227]$GNRMC,092216.468,A,4104.2949,N,00103.4769,E,11.18,99.27,290721,,,A*7E
[11:22:17.742]$GPGGA,092217.466,4104.2943,N,00103.4805,E,1,03,3.3,344.5,M,51.7,M,,0000*57
[11:22:17.898]$GNGNS,092217.466,4104.2943,N,00103.4805,E,AA,04,3.3,344.5,51.7,,0000*64
[11:22:17.992]$GNGSA,A,3,27,10,16,,,,,,,,,,6.2,3.3,5.2*2C
[11:22:18.086]$GNGSA,A,3,74,,,,,,,,,,,,6.2,3.3,5.2*2C
[11:22:18.226]$GPGSV,2,1,07,27,65,328,34,10,51,121,31,16,70,190,27,08,00,000,28*7F
[11:22:18.352]$GPGSV,2,2,07,18,22,052,23,23,00,000,39,26,00,000,33*4E
[11:22:18.492]$GLGSV,3,1,11,74,43,301,25,86,41,125,22,77,22,294,34,84,02,016,18*63
[11:22:18.633]$GLGSV,3,2,11,87,06,170,26,67,27,310,29,76,58,352,,85,36,054,*63
[11:22:18.742]$GLGSV,3,3,11,66,32,252,,75,30,070,,65,06,203,*53
[11:22:18.883]$GNRMC,092217.466,A,4104.2943,N,00103.4805,E,10.28,99.87,290721,,,A*76
[11:22:19.039]$GPGGA,092218.466,4104.2946,N,00103.4851,E,1,03,3.3,348.2,M,51.7,M,,0000*57
[11:22:19.195]$GNGNS,092218.466,4104.2946,N,00103.4851,E,AA,04,3.3,348.2,51.7,,0000*64
[11:22:19.289]$GNGSA,A,3,27,10,16,,,,,,,,,,6.2,3.3,5.2*2C
[11:22:19.383]$GNGSA,A,3,74,,,,,,,,,,,,6.2,3.3,5.2*2C
[11:22:19.539]$GNRMC,092218.466,A,4104.2946,N,00103.4851,E,11.06,99.10,290721,,,A*7E
[11:22:19.742]$GPGGA,092219.466,4104.2945,N,00103.4888,E,1,03,3.3,349.5,M,51.7,M,,0000*57
[11:22:19.898]$GNGNS,092219.466,4104.2945,N,00103.4888,E,AA,04,3.3,349.5,51.7,,0000*64
[11:22:19.992]$GNGSA,A,3,27,10,16,,,,,,,,,,6.2,3.3,5.2*2C
[11:22:20.086]$GNGSA,A,3,74,,,,,,,,,,,,6.2,3.3,5.2*2C
[11:22:20.227]$GNRMC,092219.466,A,4104.2945,N,00103.4888,E,10.29,99.07,290721,,,A*72
[11:22:20.742]$GPGGA,092220.466,4104.2945,N,00103.4922,E,1,03,3.3,350.8,M,51.7,M,,0000*59
[11:22:20.898]$GNGNS,092220.466,4104.2945,N,00103.4922,E,AA,04,3.3,350.8,51.7,,0000*6A
[11:22:20.992]$GNGSA,A,3,27,10,16,,,,,,,,,,6.2,3.3,5.2*2C
[11:22:21.070]$GNGSA,A,3,74,,,,,,,,,,,,6.2,3.3,5.2*2C
[11:22:21.227]$GNRMC,092220.466,A,4104.2945,N,00103.4922,E,9.29,97.18,290721,,,A*41
[11:22:21.742]$GPGGA,092221.466,4104.2951,N,00103.4965,E,1,03,3.3,350.9,M,51.7,M,,0000*5F
[11:22:21.898]$GNGNS,092221.466,4104.2951,N,00103.4965,E,AA,04,3.3,350.9,51.7,,0000*6C
[11:22:21.992]$GNGSA,A,3,27,10,16,,,,,,,,,,6.2,3.3,5.2*2C
[11:22:22.070]$GNGSA,A,3,74,,,,,,,,,,,,6.2,3.3,5.2*2C
[11:22:22.226]$GNRMC,092221.466,A,4104.2951,N,00103.4965,E,10.21,95.84,290721,,,A*71
[11:22:22.742]$GPGGA,092222.466,4104.2957,N,00103.5006,E,1,03,3.3,353.0,M,51.7,M,,0000*5D
[11:22:22.898]$GNGNS,092222.466,4104.2957,N,00103.5006,E,AA,04,3.3,353.0,51.7,,0000*6E
[11:22:22.992]$GNGSA,A,3,27,10,16,,,,,,,,,,6.2,3.3,5.2*2C
[11:22:23.086]$GNGSA,A,3,74,,,,,,,,,,,,6.2,3.3,5.2*2C
[11:22:23.227]$GPGSV,2,1,07,27,65,328,34,10,51,121,30,16,70,190,24,08,00,000,28*7D
[11:22:23.336]$GPGSV,2,2,07,18,22,052,33,23,00,000,40,26,00,000,30*42
[11:22:23.492]$GLGSV,3,1,11,74,43,301,26,86,41,125,22,77,22,294,29,87,06,170,27*66
[11:22:23.617]$GLGSV,3,2,11,67,27,310,37,76,58,352,,85,36,054,,66,32,252,*63
[11:22:23.726]$GLGSV,3,3,11,75,30,070,,65,06,203,,84,02,016,*5E
[11:22:23.883]$GNRMC,092222.466,A,4104.2957,N,00103.5006,E,9.96,92.88,290721,,,A*46
[11:22:24.039]$GPGGA,092223.466,4104.2962,N,00103.5041,E,1,03,3.3,351.7,M,51.7,M,,0000*5C
[11:22:24.195]$GNGNS,092223.466,4104.2962,N,00103.5041,E,AA,04,3.3,351.7,51.7,,0000*6F
[11:22:24.289]$GNGSA,A,3,10,27,16,,,,,,,,,,6.2,3.3,5.2*2C
[11:22:24.367]$GNGSA,A,3,74,,,,,,,,,,,,6.2,3.3,5.2*2C
[11:22:24.524]$GNRMC,092223.466,A,4104.2962,N,00103.5041,E,9.19,90.38,290721,,,A*4C
[11:22:24.742]$GPGGA,092224.466,4104.2964,N,00103.5073,E,1,03,3.3,352.8,M,51.7,M,,0000*50
[11:22:24.898]$GNGNS,092224.466,4104.2964,N,00103.5073,E,AA,04,3.3,352.8,51.7,,0000*63
[11:22:24.992]$GNGSA,A,3,10,27,16,,,,,,,,,,6.2,3.3,5.2*2C
[11:22:25.086]$GNGSA,A,3,74,,,,,,,,,,,,6.2,3.3,5.2*2C
[11:22:25.227]$GNRMC,092224.466,A,4104.2964,N,00103.5073,E,8.49,88.09,290721,,,A*43
[11:22:25.742]$GPGGA,092225.466,4104.2967,N,00103.5103,E,1,03,3.3,352.5,M,51.7,M,,0000*59
[11:22:25.898]$GNGNS,092225.466,4104.2967,N,00103.5103,E,AA,04,3.3,352.5,51.7,,0000*6A
[11:22:25.992]$GNGSA,A,3,10,27,16,,,,,,,,,,6.2,3.3,5.2*2C
[11:22:26.086]$GNGSA,A,3,74,,,,,,,,,,,,6.2,3.3,5.2*2C
[11:22:26.227]$GNRMC,092225.466,A,4104.2967,N,00103.5103,E,8.09,86.10,290721,,,A*45
[11:22:26.742]$GPGGA,092226.466,4104.2967,N,00103.5134,E,1,03,3.3,352.6,M,51.7,M,,0000*5D
[11:22:26.899]$GNGNS,092226.466,4104.2967,N,00103.5134,E,AA,04,3.3,352.6,51.7,,0000*6E
[11:22:26.992]$GNGSA,A,3,10,27,16,,,,,,,,,,6.2,3.3,5.2*2C
[11:22:27.086]$GNGSA,A,3,74,,,,,,,,,,,,6.2,3.3,5.2*2C
[11:22:27.227]$GNRMC,092226.466,A,4104.2967,N,00103.5134,E,8.25,88.59,290721,,,A*4F
[11:22:27.742]$GPGGA,092227.466,4104.2973,N,00103.5177,E,1,03,3.3,352.1,M,51.7,M,,0000*59
[11:22:27.899]$GNGNS,092227.466,4104.2973,N,00103.5177,E,AA,04,3.3,352.1,51.7,,0000*6A
[11:22:27.992]$GNGSA,A,3,10,27,16,,,,,,,,,,6.2,3.3,5.2*2C
[11:22:28.086]$GNGSA,A,3,74,,,,,,,,,,,,6.2,3.3,5.2*2C
[11:22:28.227]$GPGSV,2,1,07,10,51,121,39,27,65,328,33,16,70,190,31,08,00,000,29*76
[11:22:28.352]$GPGSV,2,2,07,18,22,052,26,23,00,000,40,26,00,000,29*4E
[11:22:28.492]$GLGSV,3,1,11,74,43,301,27,86,41,125,22,77,22,294,29,87,06,170,27*67
[11:22:28.617]$GLGSV,3,2,11,67,27,310,28,76,58,352,,85,36,054,,66,32,252,*6D
[11:22:28.727]$GLGSV,3,3,11,75,30,070,,65,06,203,,84,02,016,*5E
[11:22:28.883]$GNRMC,092227.466,A,4104.2973,N,00103.5177,E,9.91,89.91,290721,,,A*47
[11:22:29.039]$GPGGA,092228.466,4104.2979,N,00103.5226,E,1,03,3.3,352.4,M,51.7,M,,0000*5E
[11:22:29.196]$GNGNS,092228.466,4104.2979,N,00103.5226,E,AA,04,3.3,352.4,51.7,,0000*6D
[11:22:29.289]$GNGSA,A,3,10,27,16,,,,,,,,,,6.2,3.3,5.2*2C
[11:22:29.367]$GNGSA,A,3,74,,,,,,,,,,,,6.2,3.3,5.2*2C
[11:22:29.524]$GNRMC,092228.466,A,4104.2979,N,00103.5226,E,11.45,91.16,290721,,,A*73
[11:22:29.758]$GPGGA,092229.466,4104.2980,N,00103.5269,E,1,03,3.3,351.5,M,51.7,M,,0000*50
[11:22:29.914]$GNGNS,092229.466,4104.2980,N,00103.5269,E,AA,04,3.3,351.5,51.7,,0000*63
[11:22:30.008]$GNGSA,A,3,10,27,16,,,,,,,,,,6.2,3.3,5.2*2C
[11:22:30.086]$GNGSA,A,3,74,,,,,,,,,,,,6.2,3.3,5.2*2C
[11:22:30.242]$GNRMC,092229.466,A,4104.2980,N,00103.5269,E,11.00,92.56,290721,,,A*79
[11:22:30.774]$GPGGA,092230.466,4104.2980,N,00103.5311,E,1,04,2.2,351.2,M,51.7,M,,0000*56
[11:22:30.930]$GNGNS,092230.466,4104.2980,N,00103.5311,E,AA,05,2.2,351.2,51.7,,0000*63
[11:22:31.024]$GNGSA,A,3,23,10,27,16,,,,,,,,,5.6,2.2,5.1*29
[11:22:31.118]$GNGSA,A,3,74,,,,,,,,,,,,5.6,2.2,5.1*28
[11:22:31.258]$GNRMC,092230.466,A,4104.2980,N,00103.5311,E,10.99,92.61,290721,,,A*7A
[11:22:31.742]$GPGGA,092231.466,4104.2980,N,00103.5349,E,1,04,2.2,349.7,M,51.7,M,,0000*56
[11:22:31.899]$GNGNS,092231.466,4104.2980,N,00103.5349,E,AA,05,2.2,349.7,51.7,,0000*63
[11:22:31.992]$GNGSA,A,3,23,10,27,16,,,,,,,,,5.6,2.2,5.1*29
[11:22:32.086]$GNGSA,A,3,74,,,,,,,,,,,,5.6,2.2,5.1*28
[11:22:32.227]$GNRMC,092231.466,A,4104.2980,N,00103.5349,E,10.73,91.33,290721,,,A*76
[11:22:32.399]$GPGGA,092232.000,4104.2984,N,00103.5381,E,1,04,2.2,356.2,M,51.7,M,,0000*5A
[11:22:32.555]$GNGNS,092232.000,4104.2984,N,00103.5381,E,AA,05,2.2,356.2,51.7,,0000*6F
[11:22:32.649]$GNGSA,A,3,10,23,16,27,,,,,,,,,5.6,2.2,5.1*29
[11:22:32.727]$GNGSA,A,3,74,,,,,,,,,,,,5.6,2.2,5.1*28
[11:22:32.883]$GPGSV,2,1,07,10,51,120,40,23,42,069,40,16,70,190,32,27,65,328,32*74
[11:22:32.992]$GPGSV,2,2,07,08,00,000,28,18,22,052,33,26,00,000,30*45
[11:22:33.149]$GLGSV,3,1,11,74,43,301,22,86,41,124,31,77,22,294,27,87,07,170,26*6F
[11:22:33.274]$GLGSV,3,2,11,67,27,310,37,76,58,353,,85,36,053,,66,32,252,*65
[11:22:33.383]$GLGSV,3,3,11,75,30,071,,65,06,202,,84,02,016,*5E
[11:22:33.539]$GNRMC,092232.000,A,4104.2984,N,00103.5381,E,10.87,90.30,290721,,,A*78
[11:22:33.695]$GPGGA,092233.000,4104.2986,N,00103.5427,E,1,04,2.2,358.0,M,51.7,M,,0000*5E
[11:22:33.852]$GNGNS,092233.000,4104.2986,N,00103.5427,E,AA,05,2.2,358.0,51.7,,0000*6B
[11:22:33.945]$GNGSA,A,3,10,23,27,16,,,,,,,,,5.6,2.2,5.1*29
[11:22:34.024]$GNGSA,A,3,74,,,,,,,,,,,,5.6,2.2,5.1*28
[11:22:34.180]$GNRMC,092233.000,A,4104.2986,N,00103.5427,E,11.43,89.76,290721,,,A*73
[11:22:34.352]$GPGGA,092234.000,4104.2987,N,00103.5468,E,1,04,2.2,358.4,M,51.7,M,,0000*57
[11:22:34.492]$GNGNS,092234.000,4104.2987,N,00103.5468,E,AA,05,2.2,358.4,51.7,,0000*62
[11:22:34.602]$GNGSA,A,3,23,10,16,27,,,,,,,,,5.6,2.2,5.1*29
[11:22:34.680]$GNGSA,A,3,74,,,,,,,,,,,,5.6,2.2,5.1*28
[11:22:34.836]$GNRMC,092234.000,A,4104.2987,N,00103.5468,E,11.15,89.11,290721,,,A*7C
[11:22:35.336]$GPGGA,092235.000,4104.2988,N,00103.5508,E,1,04,2.2,358.6,M,51.7,M,,0000*5C
[11:22:35.492]$GNGNS,092235.000,4104.2988,N,00103.5508,E,AA,05,2.2,358.6,51.7,,0000*69
[11:22:35.586]$GNGSA,A,3,23,10,16,27,,,,,,,,,5.6,2.2,5.1*29
[11:22:35.680]$GNGSA,A,3,74,,,,,,,,,,,,5.6,2.2,5.1*28
[11:22:35.836]$GNRMC,092235.000,A,4104.2988,N,00103.5508,E,10.81,90.02,290721,,,A*73
[11:22:36.336]$GPGGA,092236.000,4104.2987,N,00103.5546,E,1,04,2.2,358.9,M,51.7,M,,0000*55
[11:22:36.492]$GNGNS,092236.000,4104.2987,N,00103.5546,E,AA,05,2.2,358.9,51.7,,0000*60
[11:22:36.602]$GNGSA,A,3,23,10,27,16,,,,,,,,,5.6,2.2,5.1*29
[11:22:36.680]$GNGSA,A,3,74,,,,,,,,,,,,5.6,2.2,5.1*28
[11:22:36.836]$GNRMC,092236.000,A,4104.2987,N,00103.5546,E,10.28,96.83,290721,,,A*79
[11:22:37.336]$GPGGA,092237.000,4104.2980,N,00103.5581,E,1,04,2.2,358.8,M,51.7,M,,0000*59
[11:22:37.493]$GNGNS,092237.000,4104.2980,N,00103.5581,E,AA,05,2.2,358.8,51.7,,0000*6C
[11:22:37.602]$GNGSA,A,3,23,10,27,16,,,,,,,,,5.6,2.2,5.1*29
[11:22:37.680]$GNGSA,A,3,74,,,,,,,,,,,,5.6,2.2,5.1*28
[11:22:37.821]$GPGSV,2,1,07,23,42,069,40,10,51,120,39,27,65,328,33,16,70,190,33*7A
[11:22:37.945]$GPGSV,2,2,07,08,00,000,27,18,22,052,41,26,00,000,35*4A
[11:22:38.086]$GLGSV,3,1,11,74,43,301,27,86,41,124,37,77,22,294,36,87,07,170,27*6D
[11:22:38.227]$GLGSV,3,2,11,67,27,310,42,76,58,353,,85,36,053,,66,32,252,*67
[11:22:38.336]$GLGSV,3,3,11,75,30,071,,65,06,202,,84,02,016,*5E
[11:22:38.477]$GNRMC,092237.000,A,4104.2980,N,00103.5581,E,9.93,106.01,290721,,,A*7E
[11:22:38.633]$GPGGA,092238.000,4104.2967,N,00103.5617,E,1,04,2.2,358.7,M,51.7,M,,0000*5C
[11:22:38.789]$GNGNS,092238.000,4104.2967,N,00103.5617,E,AA,05,2.2,358.7,51.7,,0000*69
[11:22:38.899]$GNGSA,A,3,23,10,16,27,,,,,,,,,5.6,2.2,5.1*29
[11:22:38.977]$GNGSA,A,3,74,,,,,,,,,,,,5.6,2.2,5.1*28
[11:22:39.133]$GNRMC,092238.000,A,4104.2967,N,00103.5617,E,10.49,115.12,290721,,,A*4B
[11:22:39.336]$GPGGA,092239.000,4104.2950,N,00103.5655,E,1,04,2.2,358.4,M,51.7,M,,0000*5C
[11:22:39.492]$GNGNS,092239.000,4104.2950,N,00103.5655,E,AA,05,2.2,358.4,51.7,,0000*69
[11:22:39.602]$GNGSA,A,3,10,23,16,27,,,,,,,,,5.6,2.2,5.1*29
[11:22:39.680]$GNGSA,A,3,74,,,,,,,,,,,,5.6,2.2,5.1*28
[11:22:39.836]$GNRMC,092239.000,A,4104.2950,N,00103.5655,E,11.55,117.67,290721,,,A*44
[11:22:40.336]$GPGGA,092240.000,4104.2934,N,00103.5696,E,1,04,2.2,358.4,M,51.7,M,,0000*5F
[11:22:40.492]$GNGNS,092240.000,4104.2934,N,00103.5696,E,AA,05,2.2,358.4,51.7,,0000*6A
[11:22:40.586]$GNGSA,A,3,10,23,27,16,,,,,,,,,5.6,2.2,5.1*29
[11:22:40.680]$GNGSA,A,3,74,,,,,,,,,,,,5.6,2.2,5.1*28
[11:22:40.836]$GNRMC,092240.000,A,4104.2934,N,00103.5696,E,11.97,114.22,290721,,,A*4B
[11:22:41.336]$GPGGA,092241.000,4104.2919,N,00103.5736,E,1,04,2.2,358.4,M,51.7,M,,0000*5A
[11:22:41.492]$GNGNS,092241.000,4104.2919,N,00103.5736,E,AA,05,2.2,358.4,51.7,,0000*6F
[11:22:41.586]$GNGSA,A,3,23,10,27,16,,,,,,,,,5.6,2.2,5.1*29
[11:22:41.680]$GNGSA,A,3,74,,,,,,,,,,,,5.6,2.2,5.1*28
[11:22:41.836]$GNRMC,092241.000,A,4104.2919,N,00103.5736,E,12.13,112.17,290721,,,A*41
[11:22:42.336]$GPGGA,092242.000,4104.2905,N,00103.5780,E,1,04,2.2,358.1,M,51.7,M,,0000*5C
[11:22:42.492]$GNGNS,092242.000,4104.2905,N,00103.5780,E,AA,05,2.2,358.1,51.7,,0000*69
[11:22:42.602]$GNGSA,A,3,23,10,16,27,,,,,,,,,5.6,2.2,5.1*29
[11:22:42.680]$GNGSA,A,3,74,,,,,,,,,,,,5.6,2.2,5.1*28
[11:22:42.821]$GPGSV,2,1,07,23,42,069,40,10,51,120,39,16,70,190,33,27,65,328,31*78
[11:22:42.945]$GPGSV,2,2,07,08,00,000,28,18,22,052,35,26,00,000,41*45
[11:22:43.086]$GLGSV,3,1,11,74,43,301,20,86,41,124,30,77,22,294,41,87,07,170,20*6A
[11:22:43.227]$GLGSV,3,2,11,67,27,310,34,76,58,353,,85,36,053,,66,32,252,*66
[11:22:43.336]$GLGSV,3,3,11,75,30,071,,65,06,202,,84,02,016,*5E
[11:22:43.477]$GNRMC,092242.000,A,4104.2905,N,00103.5780,E,12.56,110.09,290721,,,A*4E
[11:22:43.633]$GPGGA,092243.000,4104.2891,N,00103.5823,E,1,04,2.2,358.2,M,51.7,M,,0000*54
[11:22:43.789]$GNGNS,092243.000,4104.2891,N,00103.5823,E,AA,05,2.2,358.2,51.7,,0000*61
[11:22:43.899]$GNGSA,A,3,10,23,16,27,,,,,,,,,5.6,2.2,5.1*29
[11:22:43.977]$GNGSA,A,3,74,,,,,,,,,,,,5.6,2.2,5.1*28
[11:22:44.133]$GNRMC,092243.000,A,4104.2891,N,00103.5823,E,12.63,112.83,290721,,,A*43
[11:22:44.336]$GPGGA,092244.000,4104.2874,N,00103.5863,E,1,04,2.2,358.1,M,51.7,M,,0000*5F
[11:22:44.493]$GNGNS,092244.000,4104.2874,N,00103.5863,E,AA,05,2.2,358.1,51.7,,0000*6A
[11:22:44.586]$GNGSA,A,3,10,23,16,27,,,,,,,,,5.6,2.2,5.1*29
[11:22:44.680]$GNGSA,A,3,74,,,,,,,,,,,,5.6,2.2,5.1*28
[11:22:44.836]$GNRMC,092244.000,A,4104.2874,N,00103.5863,E,12.32,120.22,290721,,,A*45
[11:22:45.336]$GPGGA,092245.000,4104.2853,N,00103.5899,E,1,04,2.2,357.7,M,51.7,M,,0000*57
[11:22:45.493]$GNGNS,092245.000,4104.2853,N,00103.5899,E,AA,05,2.2,357.7,51.7,,0000*62
[11:22:45.586]$GNGSA,A,3,10,23,16,27,,,,,,,,,5.6,2.2,5.1*29
[11:22:45.680]$GNGSA,A,3,74,,,,,,,,,,,,5.6,2.2,5.1*28
[11:22:45.836]$GNRMC,092245.000,A,4104.2853,N,00103.5899,E,12.32,127.24,290721,,,A*45
[11:22:46.352]$GPGGA,092246.000,4104.2826,N,00103.5912,E,1,04,2.2,348.9,M,51.7,M,,0000*54
[11:22:46.508]$GNGNS,092246.000,4104.2826,N,00103.5912,E,AA,05,2.2,348.9,51.7,,0000*61
[11:22:46.602]$GNGSA,A,3,10,23,16,27,,,,,,,,,5.6,2.2,5.1*29
[11:22:46.680]$GNGSA,A,3,74,,,,,,,,,,,,5.6,2.2,5.1*28
[11:22:46.836]$GNRMC,092246.000,A,4104.2826,N,00103.5912,E,11.79,132.80,290721,,,A*40
[11:22:47.352]$GPGGA,092247.000,4104.2795,N,00103.5929,E,1,04,2.2,340.5,M,51.7,M,,0000*5E
[11:22:47.508]$GNGNS,092247.000,4104.2795,N,00103.5929,E,AA,05,2.2,340.5,51.7,,0000*6B
[11:22:47.602]$GNGSA,A,3,10,23,27,16,,,,,,,,,5.6,2.2,5.1*29
[11:22:47.680]$GNGSA,A,3,74,,,,,,,,,,,,5.6,2.2,5.1*28
[11:22:47.836]$GPGSV,2,1,08,10,51,120,40,23,42,068,39,27,65,328,34,16,70,190,34*74
[11:22:47.977]$GPGSV,2,2,08,08,00,000,24,18,22,052,32,21,16,244,29,26,00,000,30*7A
[11:22:48.117]$GLGSV,3,1,11,74,43,301,24,86,41,124,36,77,22,294,39,87,07,170,26*61
[11:22:48.258]$GLGSV,3,2,11,67,27,310,33,76,58,353,,85,36,053,,66,32,252,*61
[11:22:48.368]$GLGSV,3,3,11,75,30,071,,65,06,202,,84,02,016,*5E
[11:22:48.508]$GNRMC,092247.000,A,4104.2795,N,00103.5929,E,12.65,134.40,290721,,,A*4A
[11:22:48.680]$GPGGA,092248.000,4104.2760,N,00103.5952,E,1,04,2.2,332.7,M,51.7,M,,0000*50
[11:22:48.821]$GNGNS,092248.000,4104.2760,N,00103.5952,E,AA,05,2.2,332.7,51.7,,0000*65
[11:22:48.930]$GNGSA,A,3,10,23,27,16,,,,,,,,,5.6,2.2,5.1*29
[11:22:49.008]$GNGSA,A,3,74,,,,,,,,,,,,5.6,2.2,5.1*28
[11:22:49.164]$GNRMC,092248.000,A,4104.2760,N,00103.5952,E,14.06,135.45,290721,,,A*44
[11:22:49.352]$GPGGA,092249.000,4104.2724,N,00103.5975,E,1,04,2.2,324.6,M,51.7,M,,0000*52
[11:22:49.508]$GNGNS,092249.000,4104.2724,N,00103.5975,E,AA,05,2.2,324.6,51.7,,0000*67
[11:22:49.602]$GNGSA,A,3,10,23,27,16,,,,,,,,,5.6,2.2,5.1*29
[11:22:49.680]$GNGSA,A,3,74,,,,,,,,,,,,5.6,2.2,5.1*28
[11:22:49.836]$GNRMC,092249.000,A,4104.2724,N,00103.5975,E,14.60,135.91,290721,,,A*49
[11:22:50.352]$GPGGA,092250.000,4104.2688,N,00103.6001,E,1,04,2.2,317.4,M,51.7,M,,0000*56
[11:22:50.508]$GNGNS,092250.000,4104.2688,N,00103.6001,E,AA,05,2.2,317.4,51.7,,0000*63
[11:22:50.602]$GNGSA,A,3,10,23,27,16,,,,,,,,,5.6,2.2,5.1*29
[11:22:50.680]$GNGSA,A,3,74,,,,,,,,,,,,5.6,2.2,5.1*28
[11:22:50.836]$GNRMC,092250.000,A,4104.2688,N,00103.6001,E,15.23,136.33,290721,,,A*42
[11:22:51.352]$GPGGA,092251.000,4104.2651,N,00103.6030,E,1,04,2.2,311.2,M,51.7,M,,0000*51
[11:22:51.508]$GNGNS,092251.000,4104.2651,N,00103.6030,E,AA,05,2.2,311.2,51.7,,0000*64
[11:22:51.602]$GNGSA,A,3,10,23,27,16,,,,,,,,,5.6,2.2,5.1*29
[11:22:51.680]$GNGSA,A,3,74,,,,,,,,,,,,5.6,2.2,5.1*28
[11:22:51.836]$GNRMC,092251.000,A,4104.2651,N,00103.6030,E,15.63,136.89,290721,,,A*40
[11:22:52.352]$GPGGA,092252.000,4104.2614,N,00103.6059,E,1,04,2.2,305.1,M,51.7,M,,0000*5A
[11:22:52.508]$GNGNS,092252.000,4104.2614,N,00103.6059,E,AA,05,2.2,305.1,51.7,,0000*6F
[11:22:52.602]$GNGSA,A,3,10,23,27,16,,,,,,,,,5.6,2.2,5.1*29
[11:22:52.680]$GNGSA,A,3,74,,,,,,,,,,,,5.6,2.2,5.1*28
[11:22:52.836]$GPGSV,2,1,08,10,51,120,41,23,42,068,37,27,65,328,34,16,70,190,34*7B
[11:22:52.977]$GPGSV,2,2,08,08,00,000,24,18,22,052,31,21,16,244,28,26,00,000,31*79
[11:22:53.117]$GLGSV,3,1,11,74,43,301,23,86,41,124,40,77,22,294,40,87,07,170,26*69
[11:22:53.258]$GLGSV,3,2,11,67,27,310,32,76,58,353,,85,36,053,,66,32,252,*60
[11:22:53.367]$GLGSV,3,3,11,75,30,071,,65,06,202,,84,02,016,*5E
[11:22:53.508]$GNRMC,092252.000,A,4104.2614,N,00103.6059,E,15.63,137.26,290721,,,A*49
[11:22:53.680]$GPGGA,092253.000,4104.2577,N,00103.6087,E,1,04,2.2,298.8,M,51.7,M,,0000*52
[11:22:53.821]$GNGNS,092253.000,4104.2577,N,00103.6087,E,AA,05,2.2,298.8,51.7,,0000*67
[11:22:53.930]$GNGSA,A,3,10,23,27,16,,,,,,,,,5.6,2.2,5.1*29
[11:22:54.008]$GNGSA,A,3,74,,,,,,,,,,,,5.6,2.2,5.1*28
[11:22:54.164]$GNRMC,092253.000,A,4104.2577,N,00103.6087,E,15.70,137.89,290721,,,A*4A
[11:22:54.352]$GPGGA,092254.000,4104.2539,N,00103.6115,E,1,04,2.2,292.6,M,51.7,M,,0000*51
[11:22:54.508]$GNGNS,092254.000,4104.2539,N,00103.6115,E,AA,05,2.2,292.6,51.7,,0000*64
[11:22:54.602]$GNGSA,A,3,10,23,27,16,,,,,,,,,5.6,2.2,5.1*29
[11:22:54.680]$GNGSA,A,3,74,,,,,,,,,,,,5.6,2.2,5.1*28
[11:22:54.836]$GNRMC,092254.000,A,4104.2539,N,00103.6115,E,15.89,137.41,290721,,,A*4F
[11:22:55.352]$GPGGA,092255.000,4104.2502,N,00103.6145,E,1,04,2.2,286.5,M,51.7,M,,0000*5B
[11:22:55.508]$GNGNS,092255.000,4104.2502,N,00103.6145,E,AA,05,2.2,286.5,51.7,,0000*6E
[11:22:55.602]$GNGSA,A,3,10,23,27,16,,,,,,,,,5.6,2.2,5.1*29
[11:22:55.680]$GNGSA,A,3,74,,,,,,,,,,,,5.6,2.2,5.1*28
[11:22:55.836]$GNRMC,092255.000,A,4104.2502,N,00103.6145,E,15.93,137.44,290721,,,A*4D
[11:22:56.352]$GPGGA,092256.000,4104.2465,N,00103.6174,E,1,04,2.2,280.8,M,51.7,M,,0000*51
[11:22:56.508]$GNGNS,092256.000,4104.2465,N,00103.6174,E,AA,05,2.2,280.8,51.7,,0000*64
[11:22:56.602]$GNGSA,A,3,10,23,27,16,,,,,,,,,5.6,2.2,5.1*29
[11:22:56.680]$GNGSA,A,3,74,,,,,,,,,,,,5.6,2.2,5.1*28
[11:22:56.836]$GNRMC,092256.000,A,4104.2465,N,00103.6174,E,15.84,137.48,290721,,,A*46
[11:22:57.352]$GPGGA,092257.000,4104.2429,N,00103.6202,E,1,04,2.2,274.8,M,51.7,M,,0000*51
[11:22:57.508]$GNGNS,092257.000,4104.2429,N,00103.6202,E,AA,05,2.2,274.8,51.7,,0000*64
[11:22:57.602]$GNGSA,A,3,10,23,27,16,,,,,,,,,5.6,2.2,5.1*29
[11:22:57.680]$GNGSA,A,3,74,,,,,,,,,,,,5.6,2.2,5.1*28
[11:22:57.836]$GPGSV,2,1,08,10,51,120,42,23,42,068,36,27,65,328,35,16,70,190,34*78
[11:22:57.977]$GPGSV,2,2,08,08,00,000,24,18,22,052,32,21,16,244,28,26,00,000,32*79
[11:22:58.118]$GLGSV,3,1,11,74,43,301,24,86,41,124,26,77,22,294,40,87,07,170,26*6E
[11:22:58.258]$GLGSV,3,2,11,67,27,310,33,76,58,353,,85,36,053,,66,32,252,*61
[11:22:58.367]$GLGSV,3,3,11,75,30,071,,65,06,202,,84,02,016,*5E
[11:22:58.508]$GNRMC,092257.000,A,4104.2429,N,00103.6202,E,15.50,137.68,290721,,,A*46
[11:22:58.680]$GPGGA,092258.000,4104.2394,N,00103.6228,E,1,04,2.2,268.8,M,51.7,M,,0000*5A
[11:22:58.821]$GNGNS,092258.000,4104.2394,N,00103.6228,E,AA,05,2.2,268.8,51.7,,0000*6F
[11:22:58.930]$GNGSA,A,3,10,23,27,16,,,,,,,,,5.6,2.2,5.1*29
[11:22:59.008]$GNGSA,A,3,74,,,,,,,,,,,,5.6,2.2,5.1*28
[11:22:59.165]$GNRMC,092258.000,A,4104.2394,N,00103.6228,E,15.13,138.04,290721,,,A*42
[11:22:59.352]$GPGGA,092259.000,4104.2359,N,00103.6253,E,1,04,2.2,262.5,M,51.7,M,,0000*51
[11:22:59.492]$GNGNS,092259.000,4104.2359,N,00103.6253,E,AA,05,2.2,262.5,51.7,,0000*64
[11:22:59.602]$GNGSA,A,3,10,23,27,16,,,,,,,,,5.6,2.2,5.1*29
[11:22:59.680]$GNGSA,A,3,74,,,,,,,,,,,,5.6,2.2,5.1*28
[11:22:59.836]$GNRMC,092259.000,A,4104.2359,N,00103.6253,E,14.85,138.21,290721,,,A*47
[11:23:00.336]$GPGGA,092300.000,4104.2324,N,00103.6272,E,1,04,2.2,254.4,M,51.7,M,,0000*51
[11:23:00.492]$GNGNS,092300.000,4104.2324,N,00103.6272,E,AA,05,2.2,254.4,51.7,,0000*64
[11:23:00.586]$GNGSA,A,3,10,23,27,16,,,,,,,,,5.6,2.2,5.1*29
[11:23:00.680]$GNGSA,A,3,74,,,,,,,,,,,,5.6,2.2,5.1*28
[11:23:00.836]$GNRMC,092300.000,A,4104.2324,N,00103.6272,E,14.32,137.93,290721,,,A*49
[11:23:01.336]$GPGGA,092301.000,4104.2290,N,00103.6294,E,1,04,2.2,247.3,M,51.7,M,,0000*53
[11:23:01.493]$GNGNS,092301.000,4104.2290,N,00103.6294,E,AA,05,2.2,247.3,51.7,,0000*66
[11:23:01.586]$GNGSA,A,3,10,23,27,16,,,,,,,,,5.6,2.2,5.1*29
[11:23:01.680]$GNGSA,A,3,74,,,,,,,,,,,,5.6,2.2,5.1*28
[11:23:01.836]$GNRMC,092301.000,A,4104.2290,N,00103.6294,E,14.31,137.43,290721,,,A*40
[11:23:02.383]$GPGGA,092302.000,4104.2260,N,00103.6313,E,1,04,2.1,232.0,M,51.7,M,,0000*53
[11:23:02.539]$GNGNS,092302.000,4104.2260,N,00103.6313,E,AA,06,2.1,232.0,51.7,,0000*65
[11:23:02.633]$GNGSA,A,3,10,23,27,16,,,,,,,,,4.6,2.1,4.1*2A
[11:23:02.727]$GNGSA,A,3,67,74,,,,,,,,,,,4.6,2.1,4.1*2A
[11:23:02.867]$GPGSV,2,1,08,10,51,120,42,23,42,068,36,27,65,328,35,16,70,190,33*7F
[11:23:03.008]$GPGSV,2,2,08,08,00,000,23,18,21,052,33,21,16,244,24,26,00,000,32*70
[11:23:03.164]$GLGSV,3,1,10,67,23,050,35,74,43,301,28,86,41,124,40,77,22,294,33*6E
[11:23:03.305]$GLGSV,3,2,10,87,07,170,26,68,25,106,28,76,58,353,,85,36,053,*6C
[11:23:03.383]$GLGSV,3,3,10,75,30,071,,84,02,016,*6A
[11:23:03.539]$GNRMC,092302.000,A,4104.2260,N,00103.6313,E,14.81,137.28,290721,,,A*44
[11:23:03.696]$GPGGA,092303.000,4104.2233,N,00103.6332,E,1,04,2.1,219.1,M,51.7,M,,0000*5F
[11:23:03.852]$GNGNS,092303.000,4104.2233,N,00103.6332,E,AA,06,2.1,219.1,51.7,,0000*69
[11:23:03.946]$GNGSA,A,3,10,23,27,16,,,,,,,,,4.6,2.1,4.1*2A
[11:23:04.040]$GNGSA,A,3,67,74,,,,,,,,,,,4.6,2.1,4.1*2A
[11:23:04.180]$GNRMC,092303.000,A,4104.2233,N,00103.6332,E,13.43,138.16,290721,,,A*4B
[11:23:04.352]$GPGGA,092304.000,4104.2205,N,00103.6342,E,1,04,2.1,207.6,M,51.7,M,,0000*52
[11:23:04.492]$GNGNS,092304.000,4104.2205,N,00103.6342,E,AA,06,2.1,207.6,51.7,,0000*64
[11:23:04.602]$GNGSA,A,3,10,23,27,16,,,,,,,,,4.6,2.1,4.1*2A
[11:23:04.696]$GNGSA,A,3,67,74,,,,,,,,,,,4.6,2.1,4.1*2A
[11:23:04.836]$GNRMC,092304.000,A,4104.2205,N,00103.6342,E,11.91,141.58,290721,,,A*47
[11:23:05.336]$GPGGA,092305.000,4104.2179,N,00103.6345,E,1,04,2.1,199.9,M,51.7,M,,0000*57
[11:23:05.492]$GNGNS,092305.000,4104.2179,N,00103.6345,E,AA,06,2.1,199.9,51.7,,0000*61
[11:23:05.586]$GNGSA,A,3,10,23,27,16,,,,,,,,,4.6,2.1,4.1*2A
[11:23:05.680]$GNGSA,A,3,67,74,,,,,,,,,,,4.6,2.1,4.1*2A
[11:23:05.836]$GNRMC,092305.000,A,4104.2179,N,00103.6345,E,9.96,148.30,290721,,,A*70
[11:23:06.336]$GPGGA,092306.000,4104.2154,N,00103.6343,E,1,04,2.1,191.9,M,51.7,M,,0000*55
[11:23:06.492]$GNGNS,092306.000,4104.2154,N,00103.6343,E,AA,06,2.1,191.9,51.7,,0000*63
[11:23:06.586]$GNGSA,A,3,10,23,27,16,,,,,,,,,4.6,2.1,4.1*2A
[11:23:06.680]$GNGSA,A,3,67,74,,,,,,,,,,,4.6,2.1,4.1*2A
[11:23:06.836]$GNRMC,092306.000,A,4104.2154,N,00103.6343,E,9.26,151.12,290721,,,A*79
[11:23:07.336]$GPGGA,092307.000,4104.2125,N,00103.6334,E,1,04,2.1,182.9,M,51.7,M,,0000*50
[11:23:07.493]$GNGNS,092307.000,4104.2125,N,00103.6334,E,AA,06,2.1,182.9,51.7,,0000*66
[11:23:07.586]$GNGSA,A,3,10,23,27,16,,,,,,,,,4.6,2.1,4.1*2A
[11:23:07.680]$GNGSA,A,3,67,74,,,,,,,,,,,4.6,2.1,4.1*2A
[11:23:07.821]$GPGSV,2,1,08,10,51,120,39,23,42,068,35,27,65,328,32,16,70,190,29*7C
[11:23:07.977]$GPGSV,2,2,08,08,00,000,30,18,21,052,29,21,16,244,18,26,00,000,32*76
[11:23:08.117]$GLGSV,3,1,10,67,23,050,39,74,43,301,27,86,41,124,43,77,22,294,47*6D
[11:23:08.243]$GLGSV,3,2,10,68,25,106,36,76,58,353,,85,36,053,,75,30,071,*6E
[11:23:08.336]$GLGSV,3,3,10,87,07,170,,84,02,016,*63
[11:23:08.492]$GNRMC,092307.000,A,4104.2125,N,00103.6334,E,9.97,157.80,290721,,,A*79
[11:23:08.649]$GPGGA,092308.000,4104.2084,N,00103.6320,E,1,04,2.1,175.8,M,51.7,M,,0000*59
[11:23:08.805]$GNGNS,092308.000,4104.2084,N,00103.6320,E,AA,06,2.1,175.8,51.7,,0000*6F
[11:23:08.899]$GNGSA,A,3,10,23,27,16,,,,,,,,,4.6,2.1,4.1*2A
[11:23:08.993]$GNGSA,A,3,67,74,,,,,,,,,,,4.6,2.1,4.1*2A
[11:23:09.133]$GNRMC,092308.000,A,4104.2084,N,00103.6320,E,12.36,165.94,290721,,,A*4C
[11:23:09.336]$GPGGA,092309.000,4104.2045,N,00103.6319,E,1,04,2.1,166.5,M,51.7,M,,0000*50
[11:23:09.493]$GNGNS,092309.000,4104.2045,N,00103.6319,E,AA,06,2.1,166.5,51.7,,0000*66
[11:23:09.587]$GNGSA,A,3,10,27,16,23,,,,,,,,,4.6,2.1,4.1*2A
[11:23:09.680]$GNGSA,A,3,67,74,,,,,,,,,,,4.6,2.1,4.1*2A
[11:23:09.836]$GNRMC,092309.000,A,4104.2045,N,00103.6319,E,12.76,161.10,290721,,,A*46
[11:23:10.337]$GPGGA,092310.000,4104.2009,N,00103.6333,E,1,04,2.1,161.9,M,51.7,M,,0000*53
[11:23:10.493]$GNGNS,092310.000,4104.2009,N,00103.6333,E,AA,06,2.1,161.9,51.7,,0000*65
[11:23:10.586]$GNGSA,A,3,10,27,16,23,,,,,,,,,4.6,2.1,4.1*2A
[11:23:10.680]$GNGSA,A,3,74,67,,,,,,,,,,,4.6,2.1,4.1*2A
[11:23:10.836]$GNRMC,092310.000,A,4104.2009,N,00103.6333,E,13.02,158.71,290721,,,A*41
[11:23:11.336]$GPGGA,092311.000,4104.1977,N,00103.6361,E,1,04,2.1,156.8,M,51.7,M,,0000*53
[11:23:11.493]$GNGNS,092311.000,4104.1977,N,00103.6361,E,AA,06,2.1,156.8,51.7,,0000*65
[11:23:11.587]$GNGSA,A,3,27,23,16,10,,,,,,,,,4.6,2.1,4.1*2A
[11:23:11.680]$GNGSA,A,3,67,74,,,,,,,,,,,4.6,2.1,4.1*2A
[11:23:11.837]$GNRMC,092311.000,A,4104.1977,N,00103.6361,E,13.15,151.65,290721,,,A*4E
[11:23:12.337]$GPGGA,092312.000,4104.1953,N,00103.6383,E,1,04,2.1,151.5,M,51.7,M,,0000*50
[11:23:12.493]$GNGNS,092312.000,4104.1953,N,00103.6383,E,AA,06,2.1,151.5,51.7,,0000*66
[11:23:12.587]$GNGSA,A,3,23,10,16,27,,,,,,,,,4.6,2.1,4.1*2A
[11:23:12.680]$GNGSA,A,3,67,74,,,,,,,,,,,4.6,2.1,4.1*2A
[11:23:12.821]$GPGSV,2,1,08,23,42,068,35,10,51,120,31,16,70,190,32,27,65,328,27*7A
[11:23:12.977]$GPGSV,2,2,08,08,00,000,30,18,21,052,39,21,16,244,33,26,00,000,35*79
[11:23:13.118]$GLGSV,3,1,10,67,23,050,41,74,43,301,21,86,41,124,41,77,22,294,38*6E
[11:23:13.258]$GLGSV,3,2,10,68,25,106,38,76,58,353,,85,36,053,,75,30,071,*60
[11:23:13.337]$GLGSV,3,3,10,87,07,170,,84,02,016,*63
[11:23:13.477]$GNRMC,092312.000,A,4104.1953,N,00103.6383,E,11.73,145.57,290721,,,A*41
[11:23:13.649]$GPGGA,092313.000,4104.1926,N,00103.6420,E,1,04,2.1,147.6,M,51.7,M,,0000*59
[11:23:13.805]$GNGNS,092313.000,4104.1926,N,00103.6420,E,AA,06,2.1,147.6,51.7,,0000*6F
[11:23:13.899]$GNGSA,A,3,10,23,27,16,,,,,,,,,4.6,2.1,4.1*2A
[11:23:13.993]$GNGSA,A,3,67,74,,,,,,,,,,,4.6,2.1,4.1*2A
[11:23:14.149]$GNRMC,092313.000,A,4104.1926,N,00103.6420,E,13.90,133.24,290721,,,A*46
[11:23:14.337]$GPGGA,092314.000,4104.1894,N,00103.6455,E,1,04,2.2,146.0,M,51.7,M,,0000*50
[11:23:14.493]$GNGNS,092314.000,4104.1894,N,00103.6455,E,AA,05,2.2,146.0,51.7,,0000*65
[11:23:14.586]$GNGSA,A,3,10,27,23,16,,,,,,,,,5.6,2.2,5.1*29
[11:23:14.680]$GNGSA,A,3,74,,,,,,,,,,,,5.6,2.2,5.1*28
[11:23:14.821]$GNRMC,092314.000,A,4104.1894,N,00103.6455,E,15.12,134.37,290721,,,A*42
[11:23:15.352]$GPGGA,092315.000,4104.1859,N,00103.6497,E,1,04,2.1,145.2,M,51.7,M,,0000*5C
[11:23:15.508]$GNGNS,092315.000,4104.1859,N,00103.6497,E,AA,06,2.1,145.2,51.7,,0000*6A
[11:23:15.602]$GNGSA,A,3,23,10,16,27,,,,,,,,,4.6,2.1,4.1*2A
[11:23:15.696]$GNGSA,A,3,74,67,,,,,,,,,,,4.6,2.1,4.1*2A
[11:23:15.852]$GNRMC,092315.000,A,4104.1859,N,00103.6497,E,16.39,134.89,290721,,,A*43
[11:23:16.352]$GPGGA,092316.000,4104.1826,N,00103.6533,E,1,04,2.1,142.1,M,51.7,M,,0000*5C
[11:23:16.508]$GNGNS,092316.000,4104.1826,N,00103.6533,E,AA,06,2.1,142.1,51.7,,0000*6A
[11:23:16.602]$GNGSA,A,3,10,23,27,16,,,,,,,,,4.6,2.1,4.1*2A
[11:23:16.696]$GNGSA,A,3,74,67,,,,,,,,,,,4.6,2.1,4.1*2A
[11:23:16.837]$GNRMC,092316.000,A,4104.1826,N,00103.6533,E,16.14,135.02,290721,,,A*4A
[11:23:17.352]$GPGGA,092317.000,4104.1790,N,00103.6569,E,1,04,2.1,138.4,M,51.7,M,,0000*58
[11:23:17.508]$GNGNS,092317.000,4104.1790,N,00103.6569,E,AA,06,2.1,138.4,51.7,,0000*6E
[11:23:17.602]$GNGSA,A,3,23,10,27,16,,,,,,,,,4.6,2.1,4.1*2A
[11:23:17.696]$GNGSA,A,3,67,74,,,,,,,,,,,4.6,2.1,4.1*2A
[11:23:17.837]$GPGSV,2,1,08,23,42,068,38,10,51,120,38,27,65,328,29,16,70,190,24*77
[11:23:17.977]$GPGSV,2,2,08,08,00,000,22,18,21,052,22,21,16,244,14,26,00,000,26*77
[11:23:18.133]$GLGSV,3,1,10,67,23,050,28,74,43,301,24,86,41,124,31,77,22,294,34*6F
[11:23:18.258]$GLGSV,3,2,10,68,25,106,32,76,58,353,,85,36,053,,75,30,071,*6A
[11:23:18.352]$GLGSV,3,3,10,87,07,170,,84,02,016,*63
[11:23:18.493]$GNRMC,092317.000,A,4104.1790,N,00103.6569,E,16.29,133.33,290721,,,A*4C
[11:23:18.665]$GPGGA,092318.000,4104.1756,N,00103.6603,E,1,04,2.1,135.0,M,51.7,M,,0000*5B
[11:23:18.821]$GNGNS,092318.000,4104.1756,N,00103.6603,E,AA,06,2.1,135.0,51.7,,0000*6D
[11:23:18.915]$GNGSA,A,3,23,10,16,27,,,,,,,,,4.6,2.1,4.1*2A
[11:23:19.008]$GNGSA,A,3,67,74,,,,,,,,,,,4.6,2.1,4.1*2A
[11:23:19.149]$GNRMC,092318.000,A,4104.1756,N,00103.6603,E,15.47,135.68,290721,,,A*45
[11:23:19.352]$GPGGA,092319.000,4104.1721,N,00103.6633,E,1,04,2.1,131.2,M,51.7,M,,0000*5F
[11:23:19.508]$GNGNS,092319.000,4104.1721,N,00103.6633,E,AA,06,2.1,131.2,51.7,,0000*69
[11:23:19.602]$GNGSA,A,3,10,23,16,27,,,,,,,,,4.6,2.1,4.1*2A
[11:23:19.696]$GNGSA,A,3,67,74,,,,,,,,,,,4.6,2.1,4.1*2A
[11:23:19.837]$GNRMC,092319.000,A,4104.1721,N,00103.6633,E,15.29,138.85,290721,,,A*41
[11:23:20.352]$GPGGA,092320.000,4104.1687,N,00103.6657,E,1,04,2.1,126.5,M,51.7,M,,0000*5B
[11:23:20.509]$GNGNS,092320.000,4104.1687,N,00103.6657,E,AA,06,2.1,126.5,51.7,,0000*6D
[11:23:20.602]$GNGSA,A,3,10,23,27,16,,,,,,,,,4.6,2.1,4.1*2A
[11:23:20.696]$GNGSA,A,3,67,74,,,,,,,,,,,4.6,2.1,4.1*2A
[11:23:20.852]$GNRMC,092320.000,A,4104.1687,N,00103.6657,E,14.51,139.11,290721,,,A*46
[11:23:21.352]$GPGGA,092321.000,4104.1646,N,00103.6695,E,1,04,2.1,124.7,M,51.7,M,,0000*59
[11:23:21.508]$GNGNS,092321.000,4104.1646,N,00103.6695,E,AA,06,2.1,124.7,51.7,,0000*6F
[11:23:21.602]$GNGSA,A,3,10,23,27,16,,,,,,,,,4.6,2.1,4.1*2A
[11:23:21.696]$GNGSA,A,3,67,74,,,,,,,,,,,4.6,2.1,4.1*2A
[11:23:21.852]$GNRMC,092321.000,A,4104.1646,N,00103.6695,E,15.72,139.12,290721,,,A*47
[11:23:22.352]$GPGGA,092322.000,4104.1605,N,00103.6741,E,1,04,2.1,122.5,M,51.7,M,,0000*51
[11:23:22.508]$GNGNS,092322.000,4104.1605,N,00103.6741,E,AA,06,2.1,122.5,51.7,,0000*67
[11:23:22.602]$GNGSA,A,3,10,27,16,23,,,,,,,,,4.6,2.1,4.1*2A
[11:23:22.696]$GNGSA,A,3,74,67,,,,,,,,,,,4.6,2.1,4.1*2A
[11:23:22.837]$GPGSV,2,1,08,10,51,120,43,27,65,328,34,16,70,190,27,23,42,068,30*7C
[11:23:22.993]$GPGSV,2,2,08,08,00,000,23,18,21,052,19,21,16,244,17,26,00,000,26*7D
[11:23:23.134]$GLGSV,3,1,10,74,43,301,24,67,23,050,25,86,41,124,25,77,22,294,34*67
[11:23:23.258]$GLGSV,3,2,10,68,25,106,24,76,58,353,,85,36,053,,75,30,071,*6D
[11:23:23.352]$GLGSV,3,3,10,87,07,170,,84,02,016,*63
[11:23:23.493]$GNRMC,092322.000,A,4104.1605,N,00103.6741,E,16.37,139.38,290721,,,A*41
[11:23:23.665]$GPGGA,092323.000,4104.1569,N,00103.6768,E,1,04,2.2,120.0,M,51.7,M,,0000*56
[11:23:23.821]$GNGNS,092323.000,4104.1569,N,00103.6768,E,AA,05,2.2,120.0,51.7,,0000*63
[11:23:23.915]$GNGSA,A,3,10,27,16,23,,,,,,,,,5.6,2.2,5.1*29
[11:23:23.993]$GNGSA,A,3,74,,,,,,,,,,,,5.6,2.2,5.1*28
[11:23:24.149]$GNRMC,092323.000,A,4104.1569,N,00103.6768,E,13.93,143.05,290721,,,A*4A
[11:23:24.352]$GPGGA,092324.000,4104.1539,N,00103.6788,E,1,04,2.1,119.3,M,51.7,M,,0000*50
[11:23:24.508]$GNGNS,092324.000,4104.1539,N,00103.6788,E,AA,06,2.1,119.3,51.7,,0000*66
[11:23:24.602]$GNGSA,A,3,10,27,16,23,,,,,,,,,4.6,2.1,4.1*2A
[11:23:24.696]$GNGSA,A,3,74,67,,,,,,,,,,,4.6,2.1,4.1*2A
[11:23:24.852]$GNRMC,092324.000,A,4104.1539,N,00103.6788,E,11.55,140.60,290721,,,A*4E
[11:23:25.383]$GPGGA,092325.000,4104.1511,N,00103.6799,E,1,05,2.1,118.5,M,51.7,M,,0000*5D
[11:23:25.540]$GNGNS,092325.000,4104.1511,N,00103.6799,E,AA,06,2.1,118.5,51.7,,0000*6A
[11:23:25.649]$GNGSA,A,3,10,27,16,23,18,,,,,,,,4.5,2.1,4.0*21
[11:23:25.727]$GNGSA,A,3,74,,,,,,,,,,,,4.5,2.1,4.0*29
[11:23:25.883]$GNRMC,092325.000,A,4104.1511,N,00103.6799,E,10.12,145.28,290721,,,A*4E
[11:23:26.368]$GPGGA,092326.000,4104.1480,N,00103.6798,E,1,04,2.1,117.5,M,51.7,M,,0000*58
[11:23:26.524]$GNGNS,092326.000,4104.1480,N,00103.6798,E,AA,06,2.1,117.5,51.7,,0000*6E
[11:23:26.618]$GNGSA,A,3,10,23,27,16,,,,,,,,,4.6,2.1,4.1*2A
[11:23:26.712]$GNGSA,A,3,74,67,,,,,,,,,,,4.6,2.1,4.1*2A
[11:23:26.852]$GNRMC,092326.000,A,4104.1480,N,00103.6798,E,9.62,155.38,290721,,,A*7A
[11:23:27.352]$GPGGA,092327.000,4104.1443,N,00103.6786,E,1,05,2.1,115.6,M,51.7,M,,0000*59
[11:23:27.508]$GNGNS,092327.000,4104.1443,N,00103.6786,E,AA,07,2.1,115.6,51.7,,0000*6F
[11:23:27.602]$GNGSA,A,3,10,23,27,16,18,,,,,,,,4.4,2.1,3.9*2E
[11:23:27.696]$GNGSA,A,3,74,67,,,,,,,,,,,4.4,2.1,3.9*27
[11:23:27.837]$GPGSV,2,1,08,10,51,120,42,23,42,068,39,27,65,329,33,16,70,189,30*7C
[11:23:27.993]$GPGSV,2,2,08,18,21,052,21,08,00,000,40,21,16,244,17,26,00,000,35*71
[11:23:28.133]$GLGSV,3,1,10,74,43,300,35,67,23,050,24,86,41,124,22,77,22,295,29*6D
[11:23:28.274]$GLGSV,3,2,10,68,25,105,37,76,58,354,,85,36,053,,75,30,071,*6B
[11:23:28.352]$GLGSV,3,3,10,87,07,170,,84,02,016,*63
[11:23:28.509]$GNRMC,092327.000,A,4104.1443,N,00103.6786,E,11.33,166.99,290721,,,A*4D
[11:23:28.665]$GPGGA,092328.000,4104.1420,N,00103.6795,E,1,05,2.1,108.0,M,51.7,M,,0000*5B
[11:23:28.821]$GNGNS,092328.000,4104.1420,N,00103.6795,E,AA,07,2.1,108.0,51.7,,0000*6D
[11:23:28.915]$GNGSA,A,3,10,23,27,18,16,,,,,,,,4.4,2.1,3.9*2E
[11:23:29.008]$GNGSA,A,3,67,74,,,,,,,,,,,4.4,2.1,3.9*27
[11:23:29.165]$GNRMC,092328.000,A,4104.1420,N,00103.6795,E,9.93,152.48,290721,,,A*7D
[11:23:29.352]$GPGGA,092329.000,4104.1398,N,00103.6817,E,1,05,2.1,100.7,M,51.7,M,,0000*54
[11:23:29.508]$GNGNS,092329.000,4104.1398,N,00103.6817,E,AA,07,2.1,100.7,51.7,,0000*62
[11:23:29.602]$GNGSA,A,3,10,23,18,27,16,,,,,,,,4.4,2.1,3.9*2E
[11:23:29.696]$GNGSA,A,3,67,74,,,,,,,,,,,4.4,2.1,3.9*27
[11:23:29.852]$GNRMC,092329.000,A,4104.1398,N,00103.6817,E,10.42,136.08,290721,,,A*4F
[11:23:30.336]$GPGGA,092330.000,4104.1387,N,00103.6846,E,1,05,2.1,91.5,M,51.7,M,,0000*6D
[11:23:30.493]$GNGNS,092330.000,4104.1387,N,00103.6846,E,AA,07,2.1,91.5,51.7,,0000*5B
[11:23:30.586]$GNGSA,A,3,23,10,18,16,27,,,,,,,,4.4,2.1,3.9*2E
[11:23:30.680]$GNGSA,A,3,67,74,,,,,,,,,,,4.4,2.1,3.9*27
[11:23:30.837]$GNRMC,092330.000,A,4104.1387,N,00103.6846,E,9.82,124.16,290721,,,A*75
[11:23:31.337]$GPGGA,092331.000,4104.1363,N,00103.6872,E,1,05,2.1,89.4,M,51.7,M,,0000*69
[11:23:31.493]$GNGNS,092331.000,4104.1363,N,00103.6872,E,AA,07,2.1,89.4,51.7,,0000*5F
[11:23:31.587]$GNGSA,A,3,23,10,16,18,27,,,,,,,,4.4,2.1,3.9*2E
[11:23:31.680]$GNGSA,A,3,67,74,,,,,,,,,,,4.4,2.1,3.9*27
[11:23:31.836]$GNRMC,092331.000,A,4104.1363,N,00103.6872,E,11.17,124.55,290721,,,A*4B
[11:23:32.336]$GPGGA,092332.000,4104.1341,N,00103.6897,E,1,05,2.1,87.8,M,51.7,M,,0000*63
[11:23:32.493]$GNGNS,092332.000,4104.1341,N,00103.6897,E,AA,07,2.1,87.8,51.7,,0000*55
[11:23:32.587]$GNGSA,A,3,23,10,18,27,16,,,,,,,,4.4,2.1,3.9*2E
[11:23:32.680]$GNGSA,A,3,67,74,,,,,,,,,,,4.4,2.1,3.9*27
[11:23:32.821]$GPGSV,2,1,08,23,42,068,39,10,51,120,35,18,21,052,27,27,65,329,25*70
[11:23:32.977]$GPGSV,2,2,08,16,70,189,24,08,00,000,29,21,16,244,24,26,00,000,18*79
[11:23:33.118]$GLGSV,3,1,10,67,23,050,27,74,43,300,27,86,41,124,25,77,22,295,18*68
[11:23:33.258]$GLGSV,3,2,10,68,25,105,33,76,58,354,,85,36,053,,75,30,071,*6F
[11:23:33.336]$GLGSV,3,3,10,87,07,170,,84,02,016,*63
[11:23:33.493]$GNRMC,092332.000,A,4104.1341,N,00103.6897,E,10.84,127.68,290721,,,A*45
[11:23:33.649]$GPGGA,092333.000,4104.1327,N,00103.6920,E,1,05,2.1,86.5,M,51.7,M,,0000*63
[11:23:33.790]$GNGNS,092333.000,4104.1327,N,00103.6920,E,AA,07,2.1,86.5,51.7,,0000*55
[11:23:33.899]$GNGSA,A,3,23,10,18,27,16,,,,,,,,4.4,2.1,3.9*2E
[11:23:33.993]$GNGSA,A,3,67,74,,,,,,,,,,,4.4,2.1,3.9*27
[11:23:34.133]$GNRMC,092333.000,A,4104.1327,N,00103.6920,E,9.54,129.36,290721,,,A*79
[11:23:34.336]$GPGGA,092334.000,4104.1313,N,00103.6950,E,1,05,2.1,84.7,M,51.7,M,,0000*64
[11:23:34.493]$GNGNS,092334.000,4104.1313,N,00103.6950,E,AA,07,2.1,84.7,51.7,,0000*52
[11:23:34.586]$GNGSA,A,3,23,10,18,27,16,,,,,,,,4.4,2.1,3.9*2E
[11:23:34.680]$GNGSA,A,3,67,74,,,,,,,,,,,4.4,2.1,3.9*27
[11:23:34.836]$GNRMC,092334.000,A,4104.1313,N,00103.6950,E,9.76,129.46,290721,,,A*79
[11:23:35.337]$GPGGA,092335.000,4104.1290,N,00103.6987,E,1,05,2.1,83.0,M,51.7,M,,0000*65
[11:23:35.493]$GNGNS,092335.000,4104.1290,N,00103.6987,E,AA,07,2.1,83.0,51.7,,0000*53
[11:23:35.587]$GNGSA,A,3,23,10,18,27,16,,,,,,,,4.4,2.1,3.9*2E
[11:23:35.680]$GNGSA,A,3,67,74,,,,,,,,,,,4.4,2.1,3.9*27
[11:23:35.836]$GNRMC,092335.000,A,4104.1290,N,00103.6987,E,11.49,128.61,290721,,,A*49
[11:23:36.383]$GPGGA,092336.000,4104.1257,N,00103.7030,E,1,05,1.6,78.1,M,51.7,M,,0000*68
[11:23:36.524]$GNGNS,092336.000,4104.1257,N,00103.7030,E,AA,08,1.6,78.1,51.7,,0000*51
[11:23:36.633]$GNGSA,A,3,18,23,10,27,16,,,,,,,,3.3,1.6,2.9*2B
[11:23:36.727]$GNGSA,A,3,67,68,74,,,,,,,,,,3.3,1.6,2.9*2C
[11:23:36.883]$GNRMC,092336.000,A,4104.1257,N,00103.7030,E,13.38,131.81,290721,,,A*47
[11:23:37.336]$GPGGA,092337.000,4104.1235,N,00103.7066,E,1,05,1.6,72.9,M,51.7,M,,0000*6C
[11:23:37.493]$GNGNS,092337.000,4104.1235,N,00103.7066,E,AA,08,1.6,72.9,51.7,,0000*55
[11:23:37.602]$GNGSA,A,3,10,23,18,27,16,,,,,,,,3.3,1.6,2.9*2B
[11:23:37.680]$GNGSA,A,3,67,68,74,,,,,,,,,,3.3,1.6,2.9*2C
[11:23:37.837]$GPGSV,2,1,08,10,51,120,37,23,42,068,37,18,21,052,38,27,65,329,33*75
[11:23:37.977]$GPGSV,2,2,08,16,70,189,23,08,00,000,28,21,16,244,13,26,00,000,32*73
[11:23:38.118]$GLGSV,3,1,10,67,23,050,36,68,25,105,29,74,43,300,25,86,42,124,40*6B
[11:23:38.258]$GLGSV,3,2,10,76,58,354,,85,36,053,,75,30,071,,77,22,295,*6C
[11:23:38.336]$GLGSV,3,3,10,87,07,169,,84,02,016,*6B
[11:23:38.493]$GNRMC,092337.000,A,4104.1235,N,00103.7066,E,11.79,137.27,290721,,,A*4C
[11:23:38.649]$GPGGA,092338.000,4104.1206,N,00103.7085,E,1,05,1.6,69.6,M,51.7,M,,0000*6B
[11:23:38.805]$GNGNS,092338.000,4104.1206,N,00103.7085,E,AA,08,1.6,69.6,51.7,,0000*52
[11:23:38.899]$GNGSA,A,3,10,23,27,18,16,,,,,,,,3.3,1.6,2.9*2B
[11:23:38.993]$GNGSA,A,3,68,67,74,,,,,,,,,,3.3,1.6,2.9*2C
[11:23:39.149]$GNRMC,092338.000,A,4104.1206,N,00103.7085,E,10.37,149.93,290721,,,A*43
[11:23:39.337]$GPGGA,092339.000,4104.1171,N,00103.7096,E,1,05,1.6,67.6,M,51.7,M,,0000*65
[11:23:39.493]$GNGNS,092339.000,4104.1171,N,00103.7096,E,AA,08,1.6,67.6,51.7,,0000*5C
[11:23:39.587]$GNGSA,A,3,10,23,16,27,18,,,,,,,,3.3,1.6,2.9*2B
[11:23:39.681]$GNGSA,A,3,68,67,74,,,,,,,,,,3.3,1.6,2.9*2C
[11:23:39.836]$GNRMC,092339.000,A,4104.1171,N,00103.7096,E,10.57,170.93,290721,,,A*4F
[11:23:40.337]$GPGGA,092340.000,4104.1148,N,00103.7099,E,1,05,1.6,65.8,M,51.7,M,,0000*62
[11:23:40.493]$GNGNS,092340.000,4104.1148,N,00103.7099,E,AA,08,1.6,65.8,51.7,,0000*5B
[11:23:40.586]$GNGSA,A,3,10,23,27,16,18,,,,,,,,3.3,1.6,2.9*2B
[11:23:40.680]$GNGSA,A,3,68,67,74,,,,,,,,,,3.3,1.6,2.9*2C
[11:23:40.837]$GNRMC,092340.000,A,4104.1148,N,00103.7099,E,8.14,191.92,290721,,,A*74
[11:23:41.336]$GPGGA,092341.000,4104.1129,N,00103.7088,E,1,05,1.6,64.2,M,51.7,M,,0000*6F
[11:23:41.493]$GNGNS,092341.000,4104.1129,N,00103.7088,E,AA,08,1.6,64.2,51.7,,0000*56
[11:23:41.587]$GNGSA,A,3,10,27,23,18,16,,,,,,,,3.3,1.6,2.9*2B
[11:23:41.680]$GNGSA,A,3,67,68,74,,,,,,,,,,3.3,1.6,2.9*2C
[11:23:41.836]$GNRMC,092341.000,A,4104.1129,N,00103.7088,E,6.53,211.10,290721,,,A*7E
[11:23:42.336]$GPGGA,092342.000,4104.1120,N,00103.7072,E,1,05,1.6,62.6,M,51.7,M,,0000*62
[11:23:42.493]$GNGNS,092342.000,4104.1120,N,00103.7072,E,AA,08,1.6,62.6,51.7,,0000*5B
[11:23:42.586]$GNGSA,A,3,10,23,18,16,27,,,,,,,,3.3,1.6,2.9*2B
[11:23:42.680]$GNGSA,A,3,68,67,74,,,,,,,,,,3.3,1.6,2.9*2C
[11:23:42.837]$GPGSV,2,1,08,10,51,120,36,23,42,068,34,18,21,052,33,16,70,189,23*73
[11:23:42.977]$GPGSV,2,2,08,27,65,329,30,08,00,000,21,21,16,244,23,26,00,000,16*73
[11:23:43.118]$GLGSV,3,1,10,68,25,105,35,67,23,050,35,74,43,300,24,86,42,124,29*6B
[11:23:43.258]$GLGSV,3,2,10,76,58,354,,85,36,053,,75,30,071,,77,22,295,*6C
[11:23:43.336]$GLGSV,3,3,10,87,07,169,,84,02,016,*6B
[11:23:43.493]$GNRMC,092342.000,A,4104.1120,N,00103.7072,E,4.62,230.61,290721,,,A*74
[11:23:43.649]$GPGGA,092343.000,4104.1118,N,00103.7058,E,1,05,1.6,61.0,M,51.7,M,,0000*65
[11:23:43.805]$GNGNS,092343.000,4104.1118,N,00103.7058,E,AA,08,1.6,61.0,51.7,,0000*5C
[11:23:43.899]$GNGSA,A,3,10,23,18,16,27,,,,,,,,3.3,1.6,2.9*2B
[11:23:43.993]$GNGSA,A,3,68,67,74,,,,,,,,,,3.3,1.6,2.9*2C
[11:23:44.149]$GNRMC,092343.000,A,4104.1118,N,00103.7058,E,1.66,246.47,290721,,,A*72
[11:23:44.337]$GPGGA,092344.000,4104.1118,N,00103.7044,E,1,05,1.6,59.2,M,51.7,M,,0000*66
[11:23:44.493]$GNGNS,092344.000,4104.1118,N,00103.7044,E,AA,08,1.6,59.2,51.7,,0000*5F
[11:23:44.587]$GNGSA,A,3,10,18,16,23,27,,,,,,,,3.3,1.6,2.9*2B
[11:23:44.680]$GNGSA,A,3,67,68,74,,,,,,,,,,3.3,1.6,2.9*2C
[11:23:44.836]$GNRMC,092344.000,A,4104.1118,N,00103.7044,E,1.59,250.98,290721,,,A*71
[11:23:45.352]$GPGGA,092345.000,4104.1121,N,00103.7036,E,1,05,1.6,58.0,M,51.7,M,,0000*6B
[11:23:45.508]$GNGNS,092345.000,4104.1121,N,00103.7036,E,AA,08,1.6,58.0,51.7,,0000*52
[11:23:45.618]$GNGSA,A,3,18,16,10,23,27,,,,,,,,3.3,1.6,2.9*2B
[11:23:45.711]$GNGSA,A,3,67,68,74,,,,,,,,,,3.3,1.6,2.9*2C
[11:23:45.852]$GNRMC,092345.000,A,4104.1121,N,00103.7036,E,0.98,253.76,290721,,,A*70
[11:23:46.352]$GPGGA,092346.000,4104.1121,N,00103.7036,E,1,05,1.6,58.0,M,51.7,M,,0000*68
[11:23:46.508]$GNGNS,092346.000,4104.1121,N,00103.7036,E,AA,08,1.6,58.0,51.7,,0000*51
[11:23:46.618]$GNGSA,A,3,10,18,16,23,27,,,,,,,,3.3,1.6,2.9*2B
[11:23:46.712]$GNGSA,A,3,67,68,74,,,,,,,,,,3.3,1.6,2.9*2C
[11:23:46.852]$GNRMC,092346.000,A,4104.1121,N,00103.7036,E,0.55,253.76,290721,,,A*72
[11:23:47.352]$GPGGA,092347.000,4104.1121,N,00103.7036,E,1,05,1.6,58.0,M,51.7,M,,0000*69
[11:23:47.508]$GNGNS,092347.000,4104.1121,N,00103.7036,E,AA,08,1.6,58.0,51.7,,0000*50
[11:23:47.618]$GNGSA,A,3,10,18,16,23,27,,,,,,,,3.3,1.6,2.9*2B
[11:23:47.711]$GNGSA,A,3,67,68,74,,,,,,,,,,3.3,1.6,2.9*2C
[11:23:47.852]$GPGSV,2,1,08,10,51,120,33,18,21,052,33,16,70,189,32,23,42,068,28*7B
[11:23:47.993]$GPGSV,2,2,08,27,65,329,24,08,00,000,21,21,16,244,20,26,00,000,18*7B
[11:23:48.149]$GLGSV,3,1,10,67,23,050,36,68,25,105,34,74,43,300,25,86,42,124,30*60
[11:23:48.274]$GLGSV,3,2,10,76,58,354,,85,36,053,,75,30,071,,77,22,295,*6C
[11:23:48.352]$GLGSV,3,3,10,87,07,169,,84,02,016,*6B
[11:23:48.508]$GNRMC,092347.000,A,4104.1121,N,00103.7036,E,0.59,253.76,290721,,,A*7F
[11:23:48.665]$GPGGA,092348.000,4104.1121,N,00103.7036,E,1,05,1.6,58.0,M,51.7,M,,0000*66
[11:23:48.821]$GNGNS,092348.000,4104.1121,N,00103.7036,E,AA,08,1.6,58.0,51.7,,0000*5F
[11:23:48.915]$GNGSA,A,3,10,16,23,27,18,,,,,,,,3.3,1.6,2.9*2B
[11:23:49.008]$GNGSA,A,3,68,67,74,,,,,,,,,,3.3,1.6,2.9*2C
[11:23:49.165]$GNRMC,092348.000,A,4104.1121,N,00103.7036,E,0.91,253.76,290721,,,A*74
[11:23:49.352]$GPGGA,092349.000,4104.1121,N,00103.7036,E,1,05,1.6,58.0,M,51.7,M,,0000*67
[11:23:49.508]$GNGNS,092349.000,4104.1121,N,00103.7036,E,AA,08,1.6,58.0,51.7,,0000*5E
[11:23:49.618]$GNGSA,A,3,10,16,23,27,18,,,,,,,,3.3,1.6,2.9*2B
[11:23:49.712]$GNGSA,A,3,68,67,74,,,,,,,,,,3.3,1.6,2.9*2C
[11:23:49.852]$GNRMC,092349.000,A,4104.1121,N,00103.7036,E,0.82,253.76,290721,,,A*77
[11:23:50.352]$GPGGA,092350.000,4104.1121,N,00103.7036,E,1,05,1.6,58.0,M,51.7,M,,0000*6F
[11:23:50.508]$GNGNS,092350.000,4104.1121,N,00103.7036,E,AA,08,1.6,58.0,51.7,,0000*56
[11:23:50.618]$GNGSA,A,3,23,10,16,27,18,,,,,,,,3.3,1.6,2.9*2B
[11:23:50.712]$GNGSA,A,3,68,67,74,,,,,,,,,,3.3,1.6,2.9*2C
[11:23:50.852]$GNRMC,092350.000,A,4104.1121,N,00103.7036,E,0.77,253.76,290721,,,A*75
[11:23:51.352]$GPGGA,092351.000,4104.1101,N,00103.6971,E,1,05,1.6,50.6,M,51.7,M,,0000*69
[11:23:51.509]$GNGNS,092351.000,4104.1101,N,00103.6971,E,AA,08,1.6,50.6,51.7,,0000*50
[11:23:51.618]$GNGSA,A,3,23,10,16,18,27,,,,,,,,3.3,1.6,2.9*2B
[11:23:51.712]$GNGSA,A,3,68,67,74,,,,,,,,,,3.3,1.6,2.9*2C
[11:23:51.852]$GNRMC,092351.000,A,4104.1101,N,00103.6971,E,1.78,258.72,290721,,,A*7C
[11:23:52.352]$GPGGA,092352.000,4104.1097,N,00103.6957,E,1,05,1.6,49.1,M,51.7,M,,0000*6F
[11:23:52.508]$GNGNS,092352.000,4104.1097,N,00103.6957,E,AA,08,1.6,49.1,51.7,,0000*56
[11:23:52.618]$GNGSA,A,3,23,10,16,18,27,,,,,,,,3.3,1.6,2.9*2B
[11:23:52.711]$GNGSA,A,3,68,67,74,,,,,,,,,,3.3,1.6,2.9*2C
[11:23:52.852]$GPGSV,2,1,08,23,42,068,36,10,51,120,33,16,70,189,26,18,21,052,25*76
[11:23:52.993]$GPGSV,2,2,08,27,65,329,24,08,00,000,24,21,16,244,18,26,00,000,17*7A
[11:23:53.149]$GLGSV,3,1,10,68,25,105,36,67,23,050,29,74,43,300,24,86,42,124,31*6C
[11:23:53.274]$GLGSV,3,2,10,76,58,354,,85,36,053,,75,30,071,,77,22,295,*6C
[11:23:53.352]$GLGSV,3,3,10,87,07,169,,84,02,016,*6B
[11:23:53.508]$GNRMC,092352.000,A,4104.1097,N,00103.6957,E,2.23,261.42,290721,,,A*71
[11:23:53.665]$GPGGA,092353.000,4104.1093,N,00103.6946,E,1,05,1.6,48.1,M,51.7,M,,0000*6B
[11:23:53.821]$GNGNS,092353.000,4104.1093,N,00103.6946,E,AA,08,1.6,48.1,51.7,,0000*52
[11:23:53.915]$GNGSA,A,3,23,16,27,10,18,,,,,,,,3.3,1.6,2.9*2B
[11:23:54.008]$GNGSA,A,3,67,68,74,,,,,,,,,,3.3,1.6,2.9*2C
[11:23:54.165]$GNRMC,092353.000,A,4104.1093,N,00103.6946,E,2.62,260.67,290721,,,A*77
[11:23:54.352]$GPGGA,092354.000,4104.1089,N,00103.6932,E,1,05,1.6,46.6,M,51.7,M,,0000*6D
[11:23:54.508]$GNGNS,092354.000,4104.1089,N,00103.6932,E,AA,08,1.6,46.6,51.7,,0000*54
[11:23:54.618]$GNGSA,A,3,23,16,10,27,18,,,,,,,,3.3,1.6,2.9*2B
[11:23:54.712]$GNGSA,A,3,67,68,74,,,,,,,,,,3.3,1.6,2.9*2C
[11:23:54.852]$GNRMC,092354.000,A,4104.1089,N,00103.6932,E,1.60,262.89,290721,,,A*7B
[11:23:55.352]$GPGGA,092355.000,4104.1089,N,00103.6932,E,1,05,1.6,46.6,M,51.7,M,,0000*6C
[11:23:55.508]$GNGNS,092355.000,4104.1089,N,00103.6932,E,AA,08,1.6,46.6,51.7,,0000*55
[11:23:55.618]$GNGSA,A,3,23,16,10,18,27,,,,,,,,3.3,1.6,2.9*2B
[11:23:55.712]$GNGSA,A,3,74,68,67,,,,,,,,,,3.3,1.6,2.9*2C
[11:23:55.852]$GNRMC,092355.000,A,4104.1089,N,00103.6932,E,0.86,262.89,290721,,,A*73
[11:23:56.352]$GPGGA,092356.000,4104.1089,N,00103.6932,E,1,05,1.6,46.6,M,51.7,M,,0000*6F
[11:23:56.509]$GNGNS,092356.000,4104.1089,N,00103.6932,E,AA,08,1.6,46.6,51.7,,0000*56
[11:23:56.602]$GNGSA,A,3,23,16,10,18,27,,,,,,,,3.3,1.6,2.9*2B
[11:23:56.712]$GNGSA,A,3,67,74,68,,,,,,,,,,3.3,1.6,2.9*2C
[11:23:56.852]$GNRMC,092356.000,A,4104.1089,N,00103.6932,E,0.57,262.89,290721,,,A*7C
[11:23:57.352]$GPGGA,092357.000,4104.1089,N,00103.6932,E,1,05,1.6,46.6,M,51.7,M,,0000*6E
[11:23:57.509]$GNGNS,092357.000,4104.1089,N,00103.6932,E,AA,08,1.6,46.6,51.7,,0000*57
[11:23:57.618]$GNGSA,A,3,23,16,10,18,27,,,,,,,,3.3,1.6,2.9*2B
[11:23:57.712]$GNGSA,A,3,67,68,74,,,,,,,,,,3.3,1.6,2.9*2C
[11:23:57.852]$GPGSV,2,1,08,23,42,068,35,16,70,189,30,10,51,120,25,18,21,052,25*75
[11:23:57.993]$GPGSV,2,2,08,27,65,329,18,08,00,000,24,21,16,244,18,26,00,000,17*75
[11:23:58.149]$GLGSV,3,1,10,67,23,050,32,68,25,105,27,74,43,300,25,86,42,124,31*67
[11:23:58.274]$GLGSV,3,2,10,76,58,354,,85,36,053,,75,30,071,,77,22,295,*6C
[11:23:58.352]$GLGSV,3,3,10,87,07,169,,84,02,016,*6B
[11:23:58.508]$GNRMC,092357.000,A,4104.1089,N,00103.6932,E,0.36,262.89,290721,,,A*7A
[11:23:58.665]$GPGGA,092358.000,4104.1089,N,00103.6932,E,1,05,1.6,46.6,M,51.7,M,,0000*61
[11:23:58.821]$GNGNS,092358.000,4104.1089,N,00103.6932,E,AA,08,1.6,46.6,51.7,,0000*58
[11:23:58.915]$GNGSA,A,3,18,23,16,10,27,,,,,,,,3.3,1.6,2.9*2B
[11:23:59.008]$GNGSA,A,3,67,68,74,,,,,,,,,,3.3,1.6,2.9*2C
[11:23:59.165]$GNRMC,092358.000,A,4104.1089,N,00103.6932,E,0.27,262.89,290721,,,A*75
[11:23:59.352]$GPGGA,092359.000,4104.1089,N,00103.6932,E,1,05,1.6,46.6,M,51.7,M,,0000*60
[11:23:59.509]$GNGNS,092359.000,4104.1089,N,00103.6932,E,AA,08,1.6,46.6,51.7,,0000*59
[11:23:59.618]$GNGSA,A,3,23,18,16,27,10,,,,,,,,3.3,1.6,2.9*2B
[11:23:59.712]$GNGSA,A,3,67,68,74,,,,,,,,,,3.3,1.6,2.9*2C
[11:23:59.852]$GNRMC,092359.000,A,4104.1089,N,00103.6932,E,0.17,262.89,290721,,,A*77
[11:24:00.337]$GPGGA,092400.000,4104.1089,N,00103.6932,E,1,05,1.6,46.6,M,51.7,M,,0000*6B
[11:24:00.493]$GNGNS,092400.000,4104.1089,N,00103.6932,E,AA,08,1.6,46.6,51.7,,0000*52
[11:24:00.587]$GNGSA,A,3,23,16,27,18,10,,,,,,,,3.3,1.6,2.9*2B
[11:24:00.680]$GNGSA,A,3,67,68,74,,,,,,,,,,3.3,1.6,2.9*2C
[11:24:00.837]$GNRMC,092400.000,A,4104.1089,N,00103.6932,E,0.03,262.89,290721,,,A*79
[11:24:01.337]$GPGGA,092401.000,4104.1089,N,00103.6932,E,1,05,1.6,46.6,M,51.7,M,,0000*6A
[11:24:01.493]$GNGNS,092401.000,4104.1089,N,00103.6932,E,AA,08,1.6,46.6,51.7,,0000*53
[11:24:01.587]$GNGSA,A,3,23,16,27,18,10,,,,,,,,3.3,1.6,2.9*2B
[11:24:01.681]$GNGSA,A,3,67,68,74,,,,,,,,,,3.3,1.6,2.9*2C
[11:24:01.837]$GNRMC,092401.000,A,4104.1089,N,00103.6932,E,0.01,262.89,290721,,,A*7A
[11:24:02.337]$GPGGA,092402.000,4104.1089,N,00103.6932,E,1,05,1.6,46.6,M,51.7,M,,0000*69
[11:24:02.493]$GNGNS,092402.000,4104.1089,N,00103.6932,E,AA,08,1.6,46.6,51.7,,0000*50
[11:24:02.587]$GNGSA,A,3,23,16,27,10,18,,,,,,,,3.3,1.6,2.9*2B
[11:24:02.680]$GNGSA,A,3,67,68,74,,,,,,,,,,3.3,1.6,2.9*2C
[11:24:02.837]$GPGSV,2,1,08,23,42,068,34,16,70,189,33,27,65,329,26,10,51,120,21*73
[11:24:02.977]$GPGSV,2,2,08,18,21,052,25,08,00,000,14,21,16,244,18,26,00,000,16*7A
[11:24:03.118]$GLGSV,3,1,10,67,23,050,32,68,25,105,27,74,43,300,25,86,42,124,31*67
[11:24:03.258]$GLGSV,3,2,10,76,58,354,,85,36,053,,75,30,071,,77,22,295,*6C
[11:24:03.337]$GLGSV,3,3,10,87,07,169,,84,02,016,*6B
[11:24:03.477]$GNRMC,092402.000,A,4104.1089,N,00103.6932,E,0.00,262.89,290721,,,A*78
[11:24:03.649]$GPGGA,092403.000,4104.1089,N,00103.6932,E,1,04,1.7,46.6,M,51.7,M,,0000*68
[11:24:03.790]$GNGNS,092403.000,4104.1089,N,00103.6932,E,AA,07,1.7,46.6,51.7,,0000*5F
[11:24:03.899]$GNGSA,A,3,23,16,27,10,,,,,,,,,3.4,1.7,2.9*24
[11:24:04.008]$GNGSA,A,3,67,74,68,,,,,,,,,,3.4,1.7,2.9*2A
[11:24:04.134]$GNRMC,092403.000,A,4104.1089,N,00103.6932,E,0.00,262.89,290721,,,A*79
[11:24:04.337]$GPGGA,092404.000,4104.1089,N,00103.6932,E,1,05,1.6,46.6,M,51.7,M,,0000*6F
[11:24:04.493]$GNGNS,092404.000,4104.1089,N,00103.6932,E,AA,08,1.6,46.6,51.7,,0000*56
[11:24:04.587]$GNGSA,A,3,16,23,27,10,18,,,,,,,,3.3,1.6,2.9*2B
[11:24:04.680]$GNGSA,A,3,74,68,67,,,,,,,,,,3.3,1.6,2.9*2C
[11:24:04.837]$GNRMC,092404.000,A,4104.1089,N,00103.6932,E,0.00,262.89,290721,,,A*7E
[11:24:05.337]$GPGGA,092405.000,4104.1089,N,00103.6932,E,1,04,1.7,46.6,M,51.7,M,,0000*6E
[11:24:05.493]$GNGNS,092405.000,4104.1089,N,00103.6932,E,AA,07,1.7,46.6,51.7,,0000*59
[11:24:05.587]$GNGSA,A,3,16,27,23,18,,,,,,,,,3.4,1.7,2.9*2C
[11:24:05.680]$GNGSA,A,3,74,68,67,,,,,,,,,,3.4,1.7,2.9*2A
[11:24:05.837]$GNRMC,092405.000,A,4104.1089,N,00103.6932,E,0.14,262.89,290721,,,A*7A
[11:24:06.337]$GPGGA,092406.000,4104.1089,N,00103.6932,E,1,05,1.6,46.6,M,51.7,M,,0000*6D
[11:24:06.493]$GNGNS,092406.000,4104.1089,N,00103.6932,E,AA,08,1.6,46.6,51.7,,0000*54
[11:24:06.587]$GNGSA,A,3,16,27,23,18,10,,,,,,,,3.3,1.6,2.9*2B
[11:24:06.680]$GNGSA,A,3,74,68,67,,,,,,,,,,3.3,1.6,2.9*2C
[11:24:06.837]$GNRMC,092406.000,A,4104.1089,N,00103.6932,E,0.20,262.89,290721,,,A*7E
[11:24:07.337]$GPGGA,092407.000,4104.1089,N,00103.6932,E,1,05,1.6,46.6,M,51.7,M,,0000*6C
[11:24:07.493]$GNGNS,092407.000,4104.1089,N,00103.6932,E,AA,08,1.6,46.6,51.7,,0000*55
[11:24:07.587]$GNGSA,A,3,16,23,27,10,18,,,,,,,,3.3,1.6,2.9*2B
[11:24:07.680]$GNGSA,A,3,74,68,67,,,,,,,,,,3.3,1.6,2.9*2C
[11:24:07.837]$GPGSV,2,1,08,16,70,189,33,23,42,068,25,27,65,329,26,10,51,120,18*79
[11:24:07.977]$GPGSV,2,2,08,18,21,052,17,08,00,000,16,21,16,244,24,26,00,000,16*76
[11:24:08.118]$GLGSV,3,1,10,74,43,300,31,68,25,105,28,67,23,050,25,86,42,124,24*6F
[11:24:08.259]$GLGSV,3,2,10,76,58,354,,85,36,053,,75,30,071,,77,22,295,*6C
[11:24:08.337]$GLGSV,3,3,10,87,07,169,,84,02,016,*6B
[11:24:08.477]$GNRMC,092407.000,A,4104.1089,N,00103.6932,E,0.17,262.89,290721,,,A*7B
[11:24:08.634]$GPGGA,092408.000,4104.1089,N,00103.6932,E,1,05,1.6,46.6,M,51.7,M,,0000*63
[11:24:08.790]$GNGNS,092408.000,4104.1089,N,00103.6932,E,AA,08,1.6,46.6,51.7,,0000*5A
[11:24:08.899]$GNGSA,A,3,16,23,27,10,18,,,,,,,,3.3,1.6,2.9*2B
[11:24:08.993]$GNGSA,A,3,74,68,67,,,,,,,,,,3.3,1.6,2.9*2C
[11:24:09.133]$GNRMC,092408.000,A,4104.1089,N,00103.6932,E,0.23,262.89,290721,,,A*73
[11:24:09.337]$GPGGA,092409.000,4104.1092,N,00103.6896,E,1,05,1.6,37.8,M,51.7,M,,0000*6F
[11:24:09.493]$GNGNS,092409.000,4104.1092,N,00103.6896,E,AA,08,1.6,37.8,51.7,,0000*56
[11:24:09.587]$GNGSA,A,3,16,23,27,10,18,,,,,,,,3.3,1.6,2.9*2B
[11:24:09.680]$GNGSA,A,3,74,68,67,,,,,,,,,,3.3,1.6,2.9*2C
[11:24:09.837]$GNRMC,092409.000,A,4104.1092,N,00103.6896,E,0.39,262.89,290721,,,A*7C
[11:24:10.337]$GPGGA,092410.000,4104.1093,N,00103.6888,E,1,05,1.6,36.9,M,51.7,M,,0000*69
[11:24:10.493]$GNGNS,092410.000,4104.1093,N,00103.6888,E,AA,08,1.6,36.9,51.7,,0000*50
[11:24:10.587]$GNGSA,A,3,16,23,10,27,18,,,,,,,,3.3,1.6,2.9*2B
[11:24:10.680]$GNGSA,A,3,74,68,67,,,,,,,,,,3.3,1.6,2.9*2C
[11:24:10.837]$GNRMC,092410.000,A,4104.1093,N,00103.6888,E,0.77,262.89,290721,,,A*70
[11:24:11.337]$GPGGA,092411.000,4104.1092,N,00103.6889,E,1,05,1.6,37.0,M,51.7,M,,0000*60
[11:24:11.493]$GNGNS,092411.000,4104.1092,N,00103.6889,E,AA,08,1.6,37.0,51.7,,0000*59
[11:24:11.587]$GNGSA,A,3,23,16,10,27,18,,,,,,,,3.3,1.6,2.9*2B
[11:24:11.681]$GNGSA,A,3,74,68,67,,,,,,,,,,3.3,1.6,2.9*2C
[11:24:11.837]$GNRMC,092411.000,A,4104.1092,N,00103.6889,E,0.00,262.89,290721,,,A*71
[11:24:12.337]$GPGGA,092412.000,4104.1094,N,00103.6885,E,1,05,1.6,36.7,M,51.7,M,,0000*6F
[11:24:12.493]$GNGNS,092412.000,4104.1094,N,00103.6885,E,AA,08,1.6,36.7,51.7,,0000*56
[11:24:12.587]$GNGSA,A,3,10,18,23,16,27,,,,,,,,3.3,1.6,2.9*2B
[11:24:12.681]$GNGSA,A,3,74,68,67,,,,,,,,,,3.3,1.6,2.9*2C
[11:24:12.837]$GPGSV,2,1,08,10,51,120,27,18,21,052,23,23,42,068,30,16,70,189,23*76
[11:24:12.977]$GPGSV,2,2,08,27,65,329,20,08,00,000,16,21,16,244,19,26,00,000,14*7D
[11:24:13.118]$GLGSV,3,1,10,74,43,300,31,68,25,105,29,67,23,050,22,86,42,124,30*6C
[11:24:13.243]$GLGSV,3,2,10,76,58,354,,85,36,053,,75,30,071,,77,22,295,*6C
[11:24:13.337]$GLGSV,3,3,10,87,07,169,,84,02,016,*6B
